AreaOfInte,longitude,latitude,AreaOfIn_1,OBJECTID,Permanent_,FDate,Resolution,GNIS_ID,GNIS_Name,AreaSqKm,Elevation,ReachCode,FType,FCode,Visibility,Shape_Leng,Shape_Area
"457",-81.344776999999993,28.588785999999999,"Virginia, Lake","95000","107806875",2013/06/26,"2","00292785",Lake Virginia,0.90405990000,66.00000000000,"03080101010209","390","39009","1000000",0.04520307136,0.00008338846
"485",-82.744739999999993,29.007500000000000,Withlacoochee River,,,,,,,,,,,,,,
"345",-81.800726999999995,27.504408000000002,Peace River,"332376",{DAE61B6E-BC9B-4B73-B053-C49A97B1451E},2013/05/28,"2",,,0.52164103000,0.00000000000,,"466","46600","250000",0.07057561157,0.00004764331
"345",-81.800726999999995,27.504408000000002,Peace River,"90885","78683887",2013/05/28,"2",,,0.09080395000,0.00000000000,,"466","46600","100000",0.01668238765,0.00000829320
"292",-82.314200000000000,28.425032999999999,Middle Lake,"507871","58705443",2018/10/05,"2","00286804",Middle Lake,0.66491397000,107.00000000000,"03100207002421","390","39009","1000000",0.05327939007,0.00006123503
"196",-82.620109999999997,28.441210000000002,Hunter's Lake,"507010","58710015",2018/10/05,"2","00284410",Hunters Lake,1.15318347000,19.00000000000,"03100207002435","390","39009","1000000",0.18422753928,0.00010622233
"443",-81.523832999999996,28.440999999999999,"Tibet, Lake","427483","112029645",2013/07/10,"2","00292259",Lake Tibet,4.36359805000,29.90000000000,"03090101028664","390","39009","2000000",0.13911482855,0.00040198296
"81",-81.341516999999996,28.475583000000000,"Conway, Lake","239823","112028653",2009/09/10,"2","00280728",Lake Conway,4.36900000000,26.20000000000,"03090101028282","390","39009","2000000",0.16146054263,0.00040253211
"213",-81.385582999999997,28.483550000000001,"Jessamine, Lake","429707","112028505",2013/07/10,"2","00284776",Lake Jessamine,1.18849486000,27.70000000000,"03090101028249","390","39009","1000000",0.07511874840,0.00010951553
"129",-82.154250000000005,27.920033000000000,Ed Medard Reservoir,"389708","51890509",2015/06/02,"2",,,2.07181442000,0.00000000000,"03100204001156","436","43618","2000000",0.22224633228,0.00018992464
"470",-82.626752999999994,28.532060999999999,Weeki Wachee River,,,,,,,,,,,,,,
"398",-81.930449999999993,26.984500000000001,Shell/Prairie Creek Res.,"340122",{72056E6A-D648-4C89-86E4-73F022D55B2C},2013/07/29,"2",,,0.00785903000,0.00000000000,,"466","46600","24000",0.00418737340,0.00000071451
"398",-81.930449999999993,26.984500000000001,Shell/Prairie Creek Res.,"139279","78605023",2013/07/29,"2",,,0.78742289000,0.00000000000,"03100101020875","390","39004","5000000",0.08941274581,0.00007158670
"634",-81.529650000000004,28.472100000000001,Isleworth Lake,"425754","120024235",2011/04/15,"2","00288428",Lake Palmer,0.18800000000,0.00000000000,"03090101028738","390","39004","500000",0.01969815329,0.00001730568
"76",-81.413533000000001,28.517333000000001,Clear Lake,"428937","112027953",2013/07/10,"2","00280529",Clear Lake,1.44688591000,0.00000000000,"03090101028070","390","39004","2000000",0.11909036932,0.00013337412
"261",-81.531417000000005,28.476966999999998,"Louise, Lake","429979","120024234",2013/07/10,"2","00286141",Lake Louise,0.51610035000,0.00000000000,"03090101028685","390","39004","1000000",0.04298371231,0.00004755493
"67",-81.523133000000001,28.477232999999998,"Chase, Lake","429294",{7E8F2789-19FF-4B6F-8CBF-1085C13CBE58},2013/07/10,"2","00280334",Lake Chase,0.58374821000,29.90000000000,"03090101044686","390","39009","1000000",0.03549290760,0.00005378673
"36",-81.516266999999999,28.478800000000000,"Blanche, Lake","427494","112028991",2013/07/10,"2","00278976",Lake Blanche,0.51154421000,29.90000000000,"03090101028598","390","39009","1000000",0.02809449192,0.00004713639
"55",-81.545117000000005,28.489999999999998,"Butler, Lake","423286","112029141",2013/07/10,"2","00279743",Lake Butler,7.02176927000,29.90000000000,"03090101043552","390","39009","2000000",0.18662777406,0.00064706942
"396",-81.519970000000001,28.432486999999998,"Sheen, Lake","430698","112030525",2011/04/15,"2","00290953",Lake Sheen,2.30600000000,29.90000000000,"03090101029193","390","39009","2000000",0.06334970032,0.00021238303
"469",-81.545878999999999,28.502122000000000,Wauseon Bay,"423286","112029141",2013/07/10,"2","00279743",Lake Butler,7.02176927000,29.90000000000,"03090101043552","390","39009","2000000",0.18662777406,0.00064706942
"119",-81.531250000000000,28.499366999999999,"Down, Lake","423427",c3aa4be1-a57b-47a6-8389-edde0c50422f,2013/07/10,"2","00281739",Lake Down,3.68000794000,29.90000000000,"03090101043551","390","39009","2000000",0.13046820571,0.00033917144
"255",-82.102249999999998,29.505820000000000,"Lochloosa, Lake","147726","120024471",2020/05/28,"2","00294060",Lochloosa Lake,22.08000922000,0.00000000000,"03080102037442","390","39000","5000000",0.19236511265,0.00205470286
"614",-81.983884099999997,29.460427599999999,Crystal and Blue Lakes,"299119","112622554",2009/11/04,"2","00305339",Blue Lake,0.05100000000,0.00000000000,"03080102004221","390","39004","250000",0.00857294061,0.00000477011
"472",-81.954599999999999,28.998919999999998,"Weir, Lake","249902","112626502",2020/05/28,"2","00306567",Lake Weir,22.75941448000,0.00000000000,"03080102029262","390","39000","5000000",0.28482686614,0.00210769710
"403",-82.041190000000000,29.215420000000002,Silver River,"264165","112629912",2020/03/18,"2",,,2.74790009000,0.00000000000,,"466","46600","500000",0.26691862305,0.00025492935
"403",-82.041190000000000,29.215420000000002,Silver River,"143153","112633230",2020/03/18,"2",,,2.59202529000,0.00000000000,,"466","46600","500000",0.19664431897,0.00024048625
"30",-81.724710000000002,30.432884999999999,Bethesda Lake FMA,"21193","125931472",2013/12/05,"2",,,0.06962433000,0.00000000000,"03080103033135","436","43600","250000",0.01093389996,0.00000653764
"330",-82.206519999999998,29.428100000000001,Orange Lake,"254341","112615464",2020/03/18,"2","00288216",Orange Lake,29.46448806000,0.00000000000,"03080102029141","390","39004","5000000",0.70735328673,0.00274028896
"323",-81.630747999999997,30.460338000000000,Oceanway FMA,"91651","125930901",2014/03/21,"2",,,0.02788249000,0.00000000000,"03080103002767","436","43600","100000",0.00680086891,0.00000261886
"413",-81.638328999999999,30.267965000000000,St. Augustine Lake FMA,"112803","125939148",2013/12/05,"2",,,0.05462283000,0.00000000000,"03080103002900","436","43600","250000",0.00986104994,0.00000512056
"159",-81.845690000000005,29.802479999999999,Georges Lake,"174267","125958327",2014/03/21,"2","00283032",Georges Lake,3.31913710000,98.00000000000,"03080103003598","390","39009","2000000",0.10303825621,0.00030969261
"430",-83.082228999999998,29.339827000000000,Suwannee River,,,,,,,,,,,,,,
"385",-82.744190000000003,29.869260000000001,Santa Fe River,,,,,,,,,,,,,,
"234",-82.887457999999995,30.423701000000001,Lang Lake FMA,"549132","134532004",2020/01/23,"2",,,0.30916654000,0.00000000000,"03110201012769","436","43600","500000",0.07196735903,0.00002902791
"384",-82.052149999999997,29.713239999999999,Santa Fe Lake,"276402",{79CB27F4-40AC-4300-8F26-E31EAA835294},2019/10/16,"2","00286691",Melrose Bay,0.19255100000,0.00000000000,"03110206012603","390","39000","500000",0.02050936430,0.00001795229
"11",-82.144795000000002,29.779958000000001,"Alto, Lake","372956","113647923",2019/04/16,"2","00307655",Lake Alto,2.24357585000,0.00000000000,"03110206000837","390","39004","5000000",0.05979860141,0.00020930739
"317",-82.345539000000002,29.949639999999999,New River,"110200","113606859",2020/05/26,"2",,,9.27060063000,0.00000000000,,"466","46600","1000000",0.39564348260,0.00086618733
"414",-80.794499999999999,28.010500000000000,St. Johns River,"269040","107736253",2016/02/24,"2","00307091",Lake Hellen Blazes,1.03054707000,0.00000000000,"03080101011247","390","39004","5000000",0.04952684710,0.00009455828
"482",-80.845799999999997,28.248159999999999,"Winder, Lake","249942","107805437",2014/09/05,"2","00293400",Lake Winder,5.91087321000,12.00000000000,"03080101010831","390","39009","5000000",0.16761466821,0.00054352183
"18",-81.352900000000005,27.562280000000001,Arbuckle Creek,"422974","112071925",2016/05/22,"2",,,34.35609600000,0.00000000000,,"466","46600","5000000",1.16291535698,0.00314072523
"161",-81.265889999999999,28.893249999999998,"Gleason, Lake","306606","107805517",2015/02/13,"2","00283108",Lake Gleason,0.48450547000,0.00000000000,"03080101009398","390","39004","1000000",0.06406386308,0.00004481731
"356",-80.835631000000006,28.340909000000000,"Poinsett, Lake","94415","107805369",2015/12/05,"2","00289112",Lake Poinsett,16.72820772000,0.00000000000,"03080101043020","390","39004","5000000",0.44794802955,0.00153939513
"235",-81.438239999999993,28.566620000000000,"Lawne, Lake","312516","107808735",2013/06/26,"2","00285401",Lawne Lake,0.59569551000,87.00000000000,"03080101010320","390","39009","1000000",0.04709569403,0.00005493320
"206",-81.285360999999995,27.378537000000001,"Istokpoga, Lake","402140",{3B811619-E5B5-45C7-B7D9-56FCFA8F5893},2016/05/22,"2",,,6.79569650000,0.00000000000,,"466","46600","1000000",0.11213691152,0.00061993565
"206",-81.285360999999995,27.378537000000001,"Istokpoga, Lake","287826","120024294",2016/05/22,"2","00284635",Lake Istokpoga,96.57482335000,11.60000000000,"03090101037913","390","39009","5000000",0.89621127043,0.00881036180
"276",-81.426270000000002,28.537949999999999,"Mann, Lake","430229","112027795",2009/09/10,"2","00286385",Lake Mann,1.06900000000,27.40000000000,"03090101028037","390","39009","1000000",0.04726961832,0.00009859817
"140",-81.409216999999998,28.593983000000001,"Fairview, Lake","161867","107808999",2009/09/10,"2","00282341",Lake Fairview,1.64100000000,88.00000000000,"03080101010249","390","39009","2000000",0.08011562303,0.00015134729
"386",-81.401949999999999,28.585432999999998,"Sarah, Lake","129986","107809233",2009/09/10,"2","00290674",Lake Sarah,0.05000000000,0.00000000000,"03080101010257","390","39004","250000",0.00789470231,0.00000465448
"474",-81.413749999999993,28.795000000000002,Wekiva River,"246414","107827921",2015/05/06,"2",,,16.09498205000,0.00000000000,,"466","46600","2000000",0.51013812725,0.00148659816
"23",-82.267888999999997,28.047830999999999,Baker Creek,"468418","41996773",2013/02/05,"2",,,1.19666824000,0.00000000000,,"466","46600","250000",0.14436352529,0.00010981736
"23",-82.267888999999997,28.047830999999999,Baker Creek,"469929","41989515",2013/02/05,"2",,,0.33213719000,0.00000000000,"03100205009743","436","43600","500000",0.02864791230,0.00003048506
"23",-82.267888999999997,28.047830999999999,Baker Creek,"331581",{725BAEC9-B3D3-47C6-BFBE-78BC1A2A3F6A},2013/02/05,"2",,,0.27704491000,0.00000000000,,"466","46600","100000",0.02562211334,0.00002542655
"188",-82.473617000000004,27.963850000000001,Hillsborough River,,,,,,,,,,,,,,
"625",-82.261623000000000,27.829281000000002,Grady Lake,"459287","51901949",2012/11/05,"2",,,0.72042753000,0.00000000000,"03100204001331","390","39004","5000000",0.07938057226,0.00006599184
"272",-81.351033000000001,28.621700000000001,"Maitland, Lake","79263","107807213",2009/09/10,"2","00286319",Lake Maitland,1.81800000000,66.00000000000,"03080101010122","390","39009","2000000",0.10781665302,0.00016773247
"333",-81.346950000000007,28.600600000000000,"Osceola, Lake","148140","107806849",2009/09/10,"2","00288267",Lake Osceola,0.63200000000,66.00000000000,"03080101010198","390","39009","1000000",0.04433687517,0.00005830836
"162",-81.506349000000000,27.563378000000000,"Glenada, Lake","423906","112047597",2014/09/09,"2","00283112",Lake Glenada,0.73421379000,35.10000000000,"03090101037281","390","39009","1000000",0.04420594324,0.00006709253
"454",-82.286249999999995,27.268500000000000,Upper Myakka Lake,"295686",{73C3EE2E-6D6B-4E7C-85E7-5EC36995AD30},2019/07/16,"2","00287499",Lake Myakka,3.34996074000,0.00000000000,"03100102012113","390","39009","2000000",0.11291858742,0.00030533636
"312",-82.273667000000003,27.025283000000002,Myakka River,"156111","166787849",2009/01/23,"2",,,0.04400000000,0.00000000000,,"466","46600","50000",0.01754716724,0.00000395669
"442",-82.272767000000002,28.054400000000001,"Thonotosassa, Lake","469350","41988831",2013/02/05,"2","00294174",Lake Thonotosassa,3.52888441000,35.00000000000,"03100205001393","390","39009","5000000",0.10322276203,0.00032391829
"221",-81.433149999999998,27.388190000000002,"Josephine, Lake","425420","112049879",2014/09/09,"2","00284942",Lake Josephine,5.15577169000,21.60000000000,"03090101038240","390","39009","2000000",0.14544789700,0.00047043908
"75",-81.347925000000004,27.312059000000001,Clay Lake,"425602","112050297",2014/01/12,"2","00280516",Lake Clay,1.43846032000,23.80000000000,"03090101038456","390","39009","2000000",0.05288399097,0.00013115209
"198",-81.342876000000004,27.289694999999998,"Huntley, Lake","427139","112050445",2014/09/09,"2","00284412",Lake Huntley,2.70342476000,25.30000000000,"03090101038505","390","39009","2000000",0.10063139522,0.00024643463
"54",-81.137039000000001,29.434638000000000,Bulow Creek,,,,,,,,,,,,,,
"115",-81.407933000000000,29.290167000000000,"Disston, Lake","78896","125973926",2011/09/26,"2","00281592",Lake Disston,7.73900000000,14.00000000000,"03080103003498","390","39009","5000000",0.11603247327,0.00071851350
"115",-81.407933000000000,29.290167000000000,"Disston, Lake","89026","125973565",2014/03/21,"2",,,4.23061239000,0.00000000000,,"466","46600","5000000",0.20142798068,0.00039286034
"422",-81.512716999999995,29.430016999999999,"Stella, Lake","89027","125973915",2011/09/26,"2","00295019",Stella Lake,1.25900000000,40.00000000000,"03080103003418","390","39009","1000000",0.09236045915,0.00011707319
"21",-81.094549999999998,28.937783000000000,"Ashby, Lake","269020","107776069",2015/02/13,"2","00277968",Lake Ashby,3.72622271000,11.00000000000,"03080101011584","390","39009","5000000",0.09134869642,0.00034479810
"318",-82.252579999999995,29.618120000000001,"Newnan, Lake","139640","112699096",2020/05/28,"2","00294429",Newnans Lake,24.17494630000,0.00000000000,"03080102005765","390","39000","5000000",0.21087170197,0.00225238071
"318",-82.252579999999995,29.618120000000001,"Newnan, Lake","170507",{7CD9D850-7DC1-4CAB-AE36-5275C71BA4C0},2020/03/18,"2",,,1.05962155000,0.00000000000,,"466","46600","250000",0.12150107673,0.00009871068
"318",-82.252579999999995,29.618120000000001,"Newnan, Lake","196897","112683932",2020/03/18,"2",,,9.46678192000,0.00000000000,,"466","46600","1000000",0.95505297382,0.00088210970
"471",-82.270332999999994,27.988133000000001,"Weeks, Lake","469402","41957577",2013/02/05,"2","00292993",Lake Weeks,0.18407337000,41.00000000000,"03100205001450","390","39009","500000",0.01864836673,0.00001688521
"370",-82.596660000000000,27.987192000000000,Rocky Creek,"67164",{418AC9F3-A5C5-4F88-A9F9-FCCC7602D017},2019/06/18,"2",,,1.81182358000,0.00000000000,,"466","46600","500000",0.13266826848,0.00016619479
"370",-82.596660000000000,27.987192000000000,Rocky Creek,"72551",{05AF4614-384A-4D50-A700-A51993F7A620},2019/06/18,"2",,,1.68415710000,0.00000000000,,"466","46600","500000",0.23202263020,0.00015449572
"321",-81.264644000000004,29.045876000000000,North Lake Talmadge,"159527","125971322",2018/02/20,"2","00298076",North Lake Talmadge,0.49666681000,55.00000000000,"03080103003585","390","39009","1000000",0.03458914339,0.00004600923
"374",-82.587576999999996,29.028832999999999,"Rousseau, Lake","506558","68038611",2013/03/20,"2","00290015",Lake Rousseau,10.91065297000,0.00000000000,"03100208002156","390","39004","5000000",1.01773505514,0.00101057234
"250",-81.473079999999996,27.541219999999999,Little Red Water Lake,"430226","112047993",2003/11/20,"2","00285771",Little Red Water Lake,1.26900000000,31.70000000000,"03090101037432","390","39009","2000000",0.05412772668,0.00011593784
"150",-82.087048999999993,28.576982000000001,"Gant, Lake and Canal","521757","68089159",2013/05/02,"2",,,0.73442655000,0.00000000000,,"466","46600","250000",0.08072696936,0.00006773386
"150",-82.087048999999993,28.576982000000001,"Gant, Lake and Canal","240408","68053115",2013/05/02,"2","00278674",Big Gant Lake,0.22308257000,76.00000000000,"03100208003168","390","39009","500000",0.01717225821,0.00002057431
"639",-81.976330000000004,27.631100000000000,Hardee Lakes FMA,"240074","78596359",2013/11/12,"2",,,0.41174353000,0.00000000000,"03100101019806","436","43600","500000",0.02714722467,0.00003764694
"241",-81.513767000000001,28.410382999999999,Little Fish Lake,"148227","112031491",2003/11/20,"2","00285678",Little Fish Lake,0.09800000000,29.90000000000,"03090101029629","390","39009","500000",0.01103884461,0.00000905841
"355",-81.514116999999999,28.422833000000001,Pocket Lake,"427157","112030991",2011/04/15,"2","00289103",Pocket Lake,0.51700000000,29.90000000000,"03090101029404","390","39009","1000000",0.03057091928,0.00004761651
"263",-82.327667000000005,27.219950000000001,Lower Myakka Lake,"293266","56700577",2019/07/16,"2","00286172",Lower Myakka Lake,2.29539747000,14.00000000000,"03100102001447","390","39009","2000000",0.08870919185,0.00020911156
"340",-82.118160000000003,28.794760000000000,"Panasoffkee, Lake","18712","68089519",2013/08/20,"2","00294114",Lake Panasoffkee,13.18681544000,0.00000000000,"03100208002551","390","39004","5000000",0.31079077069,0.00121875533
"200",-84.248469999999998,30.633430000000001,"Iamonia, Lake","170695","129950754",2015/08/06,"2","00284452",Lake Iamonia,21.53780402000,0.00000000000,"03120003001444","390","39004","5000000",1.02581767691,0.00202643397
"291",-83.969220000000007,30.555650000000000,"Miccosukee, Lake","457196","129753569",2011/02/04,"2","00286773",Lake Miccosukee,20.26300000000,0.00000000000,"03120001008814","390","39004","5000000",0.31002540907,0.00190530190
"267",-85.882266999999999,30.220800000000001,"Lullwater, Lake","247487","122170680",2004/06/28,"2",,,0.14200000000,0.00000000000,"03140101000920","390","39004","500000",0.03894818827,0.00001327789
"282",-85.607290000000006,30.141729999999999,Martin Bayou,"525695","122184244",2014/11/12,"2","00286469",Lake Martin,0.55492425000,0.00000000000,"03140101000924","390","39004","1000000",0.05284445332,0.00005195410
"459",-83.995949999999993,30.344760000000001,Wacissa River,"457670","127432289",2020/10/27,"2",,,128.72223469000,0.00000000000,,"466","46600","5000000",6.80674084268,0.01206518301
"433",-84.577230000000000,30.416560000000000,"Talquin, Lake","124897","129952717",2016/04/09,"2","00306480",Lake Talquin,32.83243952000,21.00000000000,"03120003001574","390","39009","5000000",1.53390074506,0.00308297032
"215",-81.263959999999997,28.726690000000001,"Jessup, Lake","387464",{D8DA0807-9BD3-48A2-B594-AEA2ADF2EB95},2015/05/06,"2",,,2.27133549000,0.00000000000,,"466","46600","500000",0.09108630384,0.00020977444
"215",-81.263959999999997,28.726690000000001,"Jessup, Lake","124899","107775551",2015/05/06,"2","00295793",Lake Jesup,32.60912776000,0.00000000000,"03080101009624","390","39004","5000000",0.70267236423,0.00301169332
"122",-82.795899000000006,30.410889999999998,Eagle Lake FMA,"263460","134532013",2020/01/23,"2",,,0.13545750000,0.00000000000,"03110201012776","436","43600","500000",0.04313470982,0.00001271660
"467",-82.602850000000004,30.193317000000000,Watertown Lake,"263863","134533351",2020/01/23,"2","00306566",Watertown Lake,0.19368187000,0.00000000000,"03110201001157","390","39004","500000",0.01659050801,0.00001814295
"467",-82.602850000000004,30.193317000000000,Watertown Lake,"17736",{8E479623-640F-4F33-AA76-318F7AE43568},2020/05/26,"2",,,0.20075854000,0.00000000000,"03110201015646","436","43600","0",0.01686902629,0.00001880586
"464",-80.735579999999999,28.146940000000001,"Washington, Lake","273858","107805541",2014/09/05,"2","00292914",Lake Washington,12.15968696000,17.00000000000,"03080101011019","390","39009","5000000",0.18603341126,0.00111699125
"16",-81.608649999999997,28.609100000000002,"Apopka, Lake","259160","112615520",2020/05/28,"2","00293912",Lake Apopka,125.37835070000,0.00000000000,"03080102005464","390","39000","5000000",0.67018595153,0.01156844655
"165",-81.846010000000007,28.897710000000000,"Griffin, Lake","27919","167179686",2020/05/28,"2","00305765",Lake Griffin,38.33686867000,0.00000000000,"03080102025009","390","39000","5000000",0.57412400840,0.00354537038
"146",-80.874139999999997,28.589030000000001,Fox Lake,"139485","107777833",2015/07/13,"2","00282770",Fox Lake,0.65459493000,0.00000000000,"03080101010003","390","39004","1000000",0.07157820648,0.00006038053
"112",-81.307350000000000,29.159632999999999,"Dias, Lake","259338","125973930",2011/09/26,"2","00281551",Lake Dias,2.81400000000,35.00000000000,"03080103003535","390","39009","2000000",0.08499020917,0.00026097480
"38",-81.272067000000007,29.032717000000002,Blue Lake,"223883","125971330",2004/09/27,"2","00279038",Blue Lake,0.22600000000,55.00000000000,"03080103003595","390","39009","500000",0.02675791505,0.00002092002
"409",-80.868243000000007,28.618314999999999,South Lake,"221430","107777641",2015/05/06,"2","00291391",South Lake,4.36190988000,16.00000000000,"03080101009917","390","39009","2000000",0.17241733042,0.00040244225
"638",-81.259924999999996,29.058197000000000,Cypress Lake,"121277","107723965",2003/10/16,"2","00281223",Cypress Lake,0.05700000000,63.00000000000,"03080101009141","390","39009","250000",0.00868945178,0.00000528623
"202",-80.081822000000003,26.480792000000001,"Ida, Lake","447847","138370141",2015/02/05,"2","00284458",Lake Ida,0.59550324000,0.00000000000,"03090206045138","390","39004","5000000",0.07769751067,0.00005390697
"332",-80.078480999999996,26.595511999999999,"Osborne, Lake","54144","138369423",2015/02/05,"2","00288259",Lake Osborne,1.58118183000,0.00000000000,"03090206044270","390","39004","5000000",0.23219730030,0.00014327372
"74",-80.073680999999993,26.644145999999999,"Clarke, Lake","442349","138368976",2015/02/05,"2","00280498",Lake Clarke,0.22643386000,0.00000000000,"03090206043955","390","39004","500000",0.04638508588,0.00002052598
"350",-80.072265999999999,26.682071000000001,"Pine, Lake","448496","138368540",2015/02/05,"2",,,0.14120167000,0.00000000000,"03090206043666","436","43600","500000",0.02136303179,0.00001280382
"246",-80.786360000000002,28.066770000000002,Little Lake Sawgrass,"225799","164160423",2016/02/24,"2","00285813",Little Sawgrass Lake,0.36696635000,0.00000000000,"03080101045661","390","39004","5000000",0.03124372976,0.00003368547
"230",-81.777786000000006,29.355229999999999,"Kerr, Lake","191103","107881209",2014/10/16,"2","00305905",Lake Kerr,11.74584074000,25.00000000000,"03080101028892","390","39009","5000000",0.33041018088,0.00109130001
"419",-81.537149999999997,28.571750000000002,Starke Lake,"235322","107840471",2013/06/26,"2","00291635",Starke Lake,0.93690159000,98.00000000000,"03080101010335","390","39009","1000000",0.05245138976,0.00008640344
"360",-81.536850000000001,28.564080000000001,"Prima Vista, Lake","235322","107840471",2013/06/26,"2","00291635",Starke Lake,0.93690159000,98.00000000000,"03080101010335","390","39009","1000000",0.05245138976,0.00008640344
"615",-84.157402000000005,30.432579000000000,Lafayette Lake,"544436",{790E86A0-1C71-49A6-83B2-F882C827E5E7},2020/10/27,"2",,,3.61270128000,0.00000000000,,"466","46600","0",0.26788227605,0.00033922110
"210",-84.321230000000000,30.529850000000000,"Jackson, Lake","303794","129952177",2016/04/09,"2","00284694",Lake Jackson,14.95426367000,26.50000000000,"03120003001734","390","39009","5000000",0.48865007011,0.00140558863
"170",-84.248159999999999,30.521460000000001,"Hall, Lake","21492","129951937",2014/07/22,"2","00283627",Lake Hall,0.72361684000,42.10000000000,"03120003001525","390","39009","1000000",0.04524277578,0.00006800812
"107",-85.586789999999993,30.306600000000000,Deer Point Lake,"134046","122162436",2017/01/15,"2","00281453",Deer Point Lake,12.00396935000,0.00000000000,"03140101006086","390","39004","5000000",0.54571513835,0.00112567357
"199",-86.758820000000000,30.940780000000000,Hurricane Lake FMA,"9138","120023966",2015/05/20,"2","00305849",Hurricane Lake,1.31784268000,0.00000000000,"03140104001013","390","39004","2000000",0.13549907950,0.00012438365
"319",-81.358119000000002,28.622360000000000,"Nina, Lake","79263","107807213",2009/09/10,"2","00286319",Lake Maitland,1.81800000000,66.00000000000,"03080101010122","390","39009","2000000",0.10781665302,0.00016773247
"227",-86.128919999999994,30.769729999999999,Juniper Lake FMA,"344829","63033541",2013/06/25,"2","00284998",Juniper Lake,2.24945987000,191.00000000000,"03140203001894","390","39009","2000000",0.15129623269,0.00021194504
"290",-85.170119999999997,30.776599999999998,Merritt's Mill Pond,"550184","85826380",2020/04/15,"2","00286737",Merritts Mill Pond,1.17059761000,77.00000000000,"03130012001448","390","39009","5000000",0.15000228081,0.00011029695
"37",-80.751069000000001,27.729524000000001,Blue Cypress Lake,"83966","107791825",2014/09/05,"2","00307443",Blue Cypress Lake,26.97703112000,24.00000000000,"03080101011546","390","39009","5000000",0.19883171348,0.00246882976
"183",-80.798929999999999,28.025710000000000,"Hellen-Blazes, Lake","269040","107736253",2016/02/24,"2","00307091",Lake Hellen Blazes,1.03054707000,0.00000000000,"03080101011247","390","39004","5000000",0.04952684710,0.00009455828
"389",-80.786990000000003,28.069550000000000,"Sawgrass, Lake","254665","107736095",2011/07/19,"2",,,0.00200000000,0.00000000000,,"466","46600","0",0.00159237571,0.00000018157
"389",-80.786990000000003,28.069550000000000,"Sawgrass, Lake","264297","107736091",2011/07/19,"2",,,0.00400000000,0.00000000000,,"466","46600","24000",0.00237317119,0.00000039361
"389",-80.786990000000003,28.069550000000000,"Sawgrass, Lake","176590","164160422",2015/12/05,"2","00290715",Sawgrass Lake,1.99754769000,0.00000000000,"03080101028858","390","39004","5000000",0.07968885831,0.00018337828
"44",-81.657736000000000,28.143932000000000,"Bonnet, Lake","140005","112634404",2020/05/28,"2","00279214",Bonnet Lake,0.92950871000,0.00000000000,"03080102005744","390","39000","1000000",0.06155748454,0.00008538458
"209",-81.476799999999997,27.497389999999999,"Jackson, Lake","429806","112049059",2009/09/10,"2","00284682",Lake Jackson,13.60100000000,31.10000000000,"03090101037673","390","39009","5000000",0.17949702301,0.00124206209
"61",-84.293229999999994,30.573709999999998,Carr Lake,"21487","129951347",2016/01/04,"2","00280066",Carr Lake,2.83092713000,26.50000000000,"03120003001503","390","39009","2000000",0.21089346642,0.00026619542
"326",-82.004140000000007,28.826110000000000,"Okahumpka, Lake","333611",{AF8EB5A2-08FD-49CA-8C33-3D95830ECA6F},2017/08/11,"2","00288069",Lake Okahumpka,1.62439622000,0.00000000000,"03100208027473","390","39004","2000000",0.08456973910,0.00015016371
"379",-80.949088000000003,28.607890999999999,Ruth Lake,"279176","107835897",2015/05/06,"2","00294134",Ruth Lake,0.52802689000,0.00000000000,"03080101028867","390","39004","5000000",0.03746846002,0.00004871246
"182",-81.877605000000003,28.767873000000002,Helena Run,"244798","112699780",2010/07/06,"2",,,0.14300000000,0.00000000000,,"466","46600","100000",0.01834623164,0.00001323875
"182",-81.877605000000003,28.767873000000002,Helena Run,"185995","120024301",2020/05/28,"2","00294031",Lake Harris,74.52675974000,0.00000000000,"03080102029073","390","39000","5000000",0.80536486710,0.00688581464
"110",-81.909369999999996,28.769259999999999,"Denham, Lake","129680","112683514",2020/05/28,"2","00281501",Lake Denham,1.02735329000,0.00000000000,"03080102029074","390","39000","1000000",0.04083650620,0.00009491933
"6",-81.566249999999997,29.080190000000002,Alexander Springs,"280447","107841193",2018/11/02,"2",,,51.54898785000,0.00000000000,,"466","46600","5000000",2.62387811976,0.00477661567
"217",-81.657054000000002,28.531209000000000,Johns Lake,"45493","112683814",2020/05/28,"2","00284856",Johns Lake,9.89766288000,0.00000000000,"03080102005491","390","39000","5000000",0.48409129370,0.00091246121
"28",-81.655330000000006,28.771989999999999,"Beauclair, Lake","143330","167177234",2020/05/28,"2","00278356",Lake Beauclair,4.55694657000,0.00000000000,"03080102022877","390","39000","5000000",0.11577893474,0.00042104997
"60",-81.656390000000002,28.761160000000000,"Carlton, Lake","147781","167177231",2020/05/28,"2","00280047",Lake Carlton,1.53095330000,0.00000000000,"03080102022867","390","39000","2000000",0.04698023085,0.00014143784
"320",-81.545910000000006,28.933710000000001,"Norris, Lake","264304","107775305",2011/07/19,"2","00306117",Lake Norris,4.69700000000,31.00000000000,"03080101009330","390","39009","5000000",0.10437590878,0.00043463376
"138",-81.730270000000004,28.836649999999999,"Eustis, Lake","273757","112683438",2020/05/28,"2","00282276",Lake Eustis,31.45816411000,0.00000000000,"03080102005011","390","39000","5000000",0.27477369855,0.00290865259
"488",-81.730440000000002,28.908740000000002,"Yale, Lake","139649","112613946",2020/05/28,"2","00306620",Lake Yale,16.35502083000,0.00000000000,"03080102004874","390","39000","5000000",0.23274151801,0.00151314052
"15",-81.675696000000002,28.766051000000001,Apopka Beauclair Canal,"239273","112623880",2010/07/06,"2",,,0.51000000000,0.00000000000,,"466","46600","250000",0.05495473121,0.00004716023
"117",-81.671750000000003,28.791599999999999,"Dora, Lake","206425","112683506",2020/05/28,"2","00281681",Lake Dora,17.74604697000,0.00000000000,"03080102005051","390","39000","5000000",0.32252392095,0.00163995356
"449",-81.681399999999996,28.866650000000000,Trout Lake,"147304","112689108",2009/08/22,"2","00292480",Trout Lake,0.41800000000,0.00000000000,"03080102027019","390","39004","1000000",0.02845739744,0.00003864961
"167",-81.757690999999994,28.852391999999998,Haines Creek,"254465","112654676",2010/07/06,"2",,,0.01500000000,0.00000000000,,"466","46600","50000",0.00477546550,0.00000134724
"167",-81.757690999999994,28.852391999999998,Haines Creek,"273757","112683438",2020/05/28,"2","00282276",Lake Eustis,31.45816411000,0.00000000000,"03080102005011","390","39000","5000000",0.27477369855,0.00290865259
"132",-81.710949999999997,28.958909999999999,Ella Lake,"143295","112690706",2020/05/28,"2","00305629",Ella Lake,1.97487465000,0.00000000000,"03080102004768","390","39000","2000000",0.10138883463,0.00018279518
"177",-81.792900000000003,28.784400000000002,"Harris, Lake","185995","120024301",2020/05/28,"2","00294031",Lake Harris,74.52675974000,0.00000000000,"03080102029073","390","39000","5000000",0.80536486710,0.00688581464
"70",-81.812970000000007,28.598780000000001,"Cherry, Lake","147790","167180956",2020/05/28,"2","00280361",Cherry Lake,1.88080836000,0.00000000000,"03080102026031","390","39000","5000000",0.08171734376,0.00017349550
"185",-81.778899999999993,28.564260000000001,"Hiawatha, Lake","147474","112617280",2020/05/28,"2","00283936",Lake Hiawatha,1.71437906000,0.00000000000,"03080102010899","390","39005","5000000",0.07279617664,0.00015810085
"336",-81.870948999999996,28.766338999999999,Palatlakaha River,"211046","112699786",2010/07/06,"2",,,0.54700000000,0.00000000000,,"466","46600","250000",0.03917385052,0.00005055952
"336",-81.870948999999996,28.766338999999999,Palatlakaha River,"317340","112654896",2010/07/06,"2",,,0.06100000000,0.00000000000,,"466","46600","100000",0.01311241136,0.00000564115
"53",-81.896080999999995,28.763190999999999,Bugg Springs,"244591","112699774",2020/03/18,"2","00303686",Okahumpka Swamp,13.96592867000,0.00000000000,,"466","46600","1000000",0.38800077400,0.00129043852
"53",-81.896080999999995,28.763190999999999,Bugg Springs,"166267","112699788",2009/11/16,"2",,,0.40900000000,0.00000000000,,"466","46600","250000",0.03230368571,0.00003780515
"104",-81.770797000000002,28.811550000000000,Dead River,,,,,,,,,,,,,,
"297",-81.762079999999997,28.529750000000000,"Minnehaha, Lake","142841","167178896",2020/05/28,"2","00286961",Lake Minnehaha,9.36100127000,0.00000000000,"03080102024390","390","39000","5000000",0.13951271640,0.00086298620
"226",-81.717748999999998,28.822075000000002,"Junietta, Lake","104009","112624182",2010/07/06,"2",,,0.04800000000,0.00000000000,"03080102005002","390","39004","250000",0.00994843304,0.00000444332
"249",-82.058475000000001,29.576951999999999,Little Orange Lake,"147767",{5BCE6D3C-737E-4F03-81D2-BDDDEF2B4E7C},2020/05/28,"2","00285749",Little Orange Lake,2.19125928000,0.00000000000,"03080102037680","390","39000","2000000",0.08676394700,0.00020402476
"468",-82.302508000000003,29.529840000000000,"Wauberg, Lake","151458","112698806",2020/05/28,"2","00292948",Wauberg Lake,0.95857387000,0.00000000000,"03080102004148","390","39000","1000000",0.03829502023,0.00008921083
"69",-83.415125000000003,30.615750999999999,Cherry Lake,"549372","133703081",2020/04/24,"2",,,1.94023647000,0.00000000000,"03110203002370","390","39000","2000000",0.04975595467,0.00018252159
"218",-82.083439999999996,29.590990000000001,Johnson Lake,"287724","112636388",2009/11/04,"2",,,0.03300000000,0.00000000000,,"466","46600","50000",0.01698571713,0.00000311639
"218",-82.083439999999996,29.590990000000001,Johnson Lake,"161518","112698978",2020/05/28,"2","00284880",Johnson Lake,0.17773592000,0.00000000000,"03080102003926","390","39000","500000",0.01540197221,0.00001655128
"189",-82.065119999999993,29.564889999999998,Holdens Pond,"548671","112635630",2020/03/18,"2",,,0.01829662000,0.00000000000,,"466","46600","50000",0.00679396040,0.00000170336
"189",-82.065119999999993,29.564889999999998,Holdens Pond,"138573","167769035",2020/05/28,"2","00284137",Holdens Pond,0.20405442000,0.00000000000,"03080102028891","390","39000","500000",0.02356808684,0.00001899704
"189",-82.065119999999993,29.564889999999998,Holdens Pond,"191217",{A130CC8F-19C7-4082-B9E5-BFB03DBEB16A},2020/03/18,"2",,,0.52345473000,0.00000000000,,"466","46600","500000",0.08626843439,0.00004873743
"24",-81.323080000000004,28.571800000000000,"Baldwin, Lake","147631","107807541",2013/06/26,"2","00280865",Lake Corrine,0.79256709000,91.00000000000,"03080101010272","390","39009","1000000",0.03146067256,0.00007309380
"47",-82.482699999999994,27.428083000000001,Braden River,"453572","44993407",2020/04/23,"2","00292875",Ward Lake,0.91274608000,0.00000000000,"03100202004437","436","43600","5000000",0.09722614518,0.00008330946
"47",-82.482699999999994,27.428083000000001,Braden River,"200926",{D885F0A1-5742-4879-88CE-F2D4BA0EA5F2},2019/12/24,"2",,,0.01594120000,0.00000000000,,"466","46600","50000",0.00472413706,0.00000145495
"47",-82.482699999999994,27.428083000000001,Braden River,"281619","167163999",2019/12/24,"2",,,0.12389732000,0.00000000000,,"466","46600","100000",0.02238651536,0.00001130793
"273",-82.458033000000000,27.527183000000001,Manatee River,,,,,,,,,,,,,,
"435",-82.726401999999993,28.114131000000000,"Tarpon, Lake","180864","68792760",2019/04/22,"2","00292049",Lake Tarpon,10.29406153000,2.00000000000,"03100206001066","390","39009","5000000",0.26725246690,0.00094539280
"431",-82.293750000000003,30.118150000000000,Swift Creek,"372333","113627423",2011/05/17,"2","00291965",Swift Creek Pond,2.36400000000,130.00000000000,"03110206000618","390","39009","5000000",0.05813503292,0.00022125405
"363",-82.437389999999994,29.102450000000001,Rainbow River,,,,,,,,,,,,,,
"118",-81.622680000000003,29.004140000000000,"Dorr, Lake","219906","107775203",2013/06/03,"2","00305590",Lake Dorr,6.96883509000,43.00000000000,"03080101011587","390","39009","2000000",0.11826655016,0.00064528782
"420",-81.419117999999997,27.322749000000002,Stearns Creek,,,,,,,,,,,,,,
"621",-81.422886000000005,27.404810000000001,Jackson Creek,,,,,,,,,,,,,,
"147",-81.405243999999996,27.338640000000002,"Francis, Lake","427403","112050171",2009/09/10,"2","00282784",Lake Francis,2.20700000000,21.30000000000,"03090101038416","390","39009","2000000",0.05283971356,0.00020123880
"225",-81.384479999999996,27.314650000000000,"June-In-Winter, Lake","172101","112050499",2009/09/10,"2","00284976",Lake June in Winter,15.09100000000,22.30000000000,"03090101038458","390","39009","5000000",0.21195121585,0.00137580425
"407",-83.720754999999997,30.586296999999998,Snead's Smokehouse,"484843","127396510",2014/03/11,"2","00291300",Sneads Smokehouse Lake,0.79122886000,22.90000000000,"03110103004726","390","39009","2000000",0.09615141918,0.00007441233
"451",-82.286630000000002,28.854890000000001,"Tsala Apopka, Lake","298848","68037541",2009/09/09,"2","00294179",Tsala Apopka Lake,32.50800000000,38.00000000000,"03100208004030","390","39009","5000000",2.05782802417,0.00300717018
"68",-82.597324999999998,28.720618999999999,Chassahowitzka River,,,,,,,,,,,,,,
"94",-82.672669999999997,28.920690000000000,Crystal River,,,,,,,,,,,,,,
"124",-81.866156000000004,29.258300999999999,"Eaton, Lake","138545","112614608",2020/05/28,"2","00305619",Lake Eaton,1.26643616000,0.00000000000,"03080102004394","390","39000","5000000",0.06944146983,0.00011755534
"640",-81.511236999999994,30.225425999999999,Baymeadows FMA,"353036",{42858929-BAC5-4E0F-B6B8-2362984E4E82},2013/12/05,"2",,,0.07104610000,0.00000000000,"03080103036634","436","43600","250000",0.02079685423,0.00000665724
"190",-81.944687999999999,28.024201999999999,"Hollingsworth, Lake","19470","78643057",2012/08/24,"2","00284163",Lake Hollingsworth,1.43266906000,132.00000000000,"03100101004365","390","39009","2000000",0.04292161019,0.00013146110
"438",-81.812399999999997,28.144800000000000,"Tennessee, Lake","162561","68083711",2009/09/10,"2","00292124",Lake Tennessee,0.43800000000,130.00000000000,"03100208003606","390","39009","1000000",0.02460638171,0.00004023160
"366",-81.485960000000006,27.745740000000001,"Reedy, Lake","429776","112044405",2003/11/20,"2","00307559",Reedy Lake,14.19200000000,23.80000000000,"03090101035668","390","39009","5000000",0.16064532162,0.00129891302
"341",-81.740769999999998,28.067119999999999,"Pansy, Lake","105053","78686199",2012/08/24,"2","00288455",Lake Pansy,0.20158436000,129.00000000000,"03100101004290","390","39009","5000000",0.01556239878,0.00001850474
"372",-81.397030000000001,27.933499999999999,"Rosalie, Lake","430102","112042409",2013/10/19,"2","00289953",Lake Rosalie,18.35861135000,16.20000000000,"03090101034611","390","39009","5000000",0.17735553725,0.00168319623
"376",-81.707899999999995,28.001999999999999,"Roy, Lake","217295","78690639",2012/11/02,"2","00290023",Lake Roy,0.28758693000,0.00000000000,"03100101004354","390","39004","500000",0.02294988571,0.00002638363
"268",-81.721199999999996,27.996099999999998,"Lulu, Lake","293153","78690651",2013/02/20,"2","00286210",Lake Lulu,1.13125762000,131.00000000000,"03100101005122","390","39009","5000000",0.04830709229,0.00010377764
"281",-81.721356000000000,28.028984000000001,"Martha, Lake","279830","78686317",2012/08/24,"2","00286466",Lake Martha,0.34855119000,142.00000000000,"03100101004331","390","39009","1000000",0.02026373019,0.00003198436
"380",-81.884500000000003,28.053400000000000,Saddle Creek FMA,"100161","78642867",2012/08/24,"2",,,0.92567494000,0.00000000000,"03100101022931","390","39004","5000000",0.37723620963,0.00008496384
"13",-81.605862999999999,27.992072000000000,"Annie, Lake","33636","78690661",2012/11/02,"2","00277897",Lake Annie,1.64847987000,119.00000000000,"03100101004344","390","39009","2000000",0.05744406181,0.00015122020
"426",-81.695300000000003,27.999199999999998,"Summit, Lake","222060","78690647",2013/02/20,"2","00291809",Lake Summit,0.26441983000,131.00000000000,"03100101005121","390","39009","500000",0.02313272945,0.00002425752
"400",-81.743099999999998,28.003000000000000,"Shipp, Lake","111054","78690635",2012/11/02,"2","00291058",Lake Shipp,1.08997877000,131.00000000000,"03100101004360","390","39009","5000000",0.04097918479,0.00009999698
"194",-81.744900000000001,28.023900000000001,"Howard, Lake","60702","78690629",2012/08/24,"2","00284352",Lake Howard,2.51577798000,0.00000000000,"03100101004338","390","39004","2000000",0.06144729752,0.00023084700
"445",-81.362350000000006,27.895140000000001,"Tiger, Lake","430268","112042775",2013/10/19,"2","00295814",Tiger Lake,8.44266077000,15.20000000000,"03090101034773","390","39009","5000000",0.12788295493,0.00077378365
"286",-81.736869999999996,28.015370000000001,"May, Lake","198007","78686365",2012/11/02,"2","00286540",Lake May,0.18261654000,131.00000000000,"03100101004342","390","39009","5000000",0.03786153933,0.00001675521
"52",-81.662700000000001,27.801449999999999,"Buffum, Lake","265119","78690739",2012/11/02,"2","00279626",Lake Buffum,5.13268325000,132.00000000000,"03100101004627","390","39009","5000000",0.15388623220,0.00047000689
"141",-81.689800000000005,28.059300000000000,"Fannie, Lake","221440","78686241",2012/08/24,"2","00282375",Lake Fannie,2.87997209000,125.00000000000,"03100101004309","390","39009","5000000",0.08772502226,0.00026434933
"631",-81.592500000000001,27.893889000000001,Twin Lakes,"75487","78641821",2012/11/02,"2",,,0.05504555000,0.00000000000,,"466","46600","100000",0.01999205512,0.00000504495
"631",-81.592500000000001,27.893889000000001,Twin Lakes,"148445","78642003",2012/11/02,"2","00292609",Twin Lakes,0.06873198000,0.00000000000,"03100101004459","390","39004","250000",0.01111574673,0.00000629939
"439",-81.914699999999996,28.098199999999999,Tenoroc Pits,"250700","78642529",2012/08/24,"2",,,0.83861312000,0.00000000000,"03100101022888","390","39004","1000000",0.18170824621,0.00007699954
"172",-81.652600000000007,28.049299999999999,"Hamilton, Lake","244941","78686183",2014/10/27,"2","00283642",Lake Hamilton,8.66813769000,120.00000000000,"03100101004315","390","39009","5000000",0.16034934554,0.00079558122
"19",-81.412809999999993,27.711980000000001,"Arbuckle, Lake","429678","112045497",2014/04/24,"2","00277931",Lake Arbuckle,15.41298817000,16.20000000000,"03090101035855","390","39009","5000000",0.20105402004,0.00141006202
"280",-81.528469999999999,28.061530000000001,"Marion, Lake","46586","112041231",2013/08/19,"2","00286432",Lake Marion,12.22618600000,20.40000000000,"03090101033942","390","39009","5000000",0.19893445313,0.00112243571
"368",-81.721800000000002,28.073000000000000,"Rochelle, Lake","202577","78686169",2012/08/24,"2","00289806",Lake Rochelle,2.08856849000,128.00000000000,"03100101004282","390","39009","5000000",0.08293481492,0.00019173188
"125",-81.734499999999997,28.082899999999999,"Echo, Lake","245823","78686159",2012/08/24,"2","00282073",Lake Echo,0.27167878000,130.00000000000,"03100101004280","390","39009","500000",0.01809134861,0.00002494249
"253",-81.519166999999996,27.685278000000000,"Livingston, Lake","427902","112045629",2011/04/15,"2","00285891",Lake Livingston,4.60800000000,26.50000000000,"03090101036240","390","39009","2000000",0.09045146400,0.00042151222
"174",-81.838099999999997,27.968800000000002,"Hancock, Lake","41901","78690645",2012/11/02,"2","00283683",Lake Hancock,18.54918596000,97.00000000000,"03100101004378","390","39009","5000000",0.18989094083,0.00170124991
"342",-81.928150000000002,28.052009999999999,"Parker, Lake","254670","78690613",2013/02/20,"2","00288524",Lake Parker,8.53325298000,130.00000000000,"03100101004304","390","39009","5000000",0.20803708662,0.00078331463
"203",-81.756500000000003,28.050400000000000,"Idylwild, Lake","332869",{8CA53379-C722-4F82-BBE7-2015FC918800},2013/02/20,"2","00284467",Lake Idylwild,0.37586487000,0.00000000000,"03100101029721","390","39004","1000000",0.02235999799,0.00003449760
"25",-81.903599999999997,27.978800000000000,Banana Lake,"89805","78658003",2012/08/24,"2","00278076",Banana Lake,1.05204812000,0.00000000000,"03100101004407","390","39004","2000000",0.09964790793,0.00009649615
"152",-81.730833000000004,27.903333000000000,"Garfield, Lake","231074","78690681",2012/11/02,"2","00282940",Lake Garfield,2.55126114000,100.00000000000,"03100101026485","390","39009","5000000",0.10656603092,0.00023384645
"160",-81.961900000000000,28.109800000000000,"Gibson, Lake","235603","78642503",2013/02/20,"2","00283058",Lake Gibson,1.98320582000,142.00000000000,"03100101005118","390","39009","2000000",0.06977311242,0.00018211956
"284",-81.773570000000007,28.137360000000001,"Mattie, Lake","520750","68087831",2013/06/03,"2","00286526",Lake Mattie,4.28007172000,130.00000000000,"03100208003634","390","39009","2000000",0.10241455643,0.00039314566
"80",-81.721230000000006,28.060230000000001,"Conine, Lake","148469","78686223",2013/02/20,"2","00280711",Lake Conine,0.85506598000,128.00000000000,"03100101004300","390","39009","5000000",0.04219842534,0.00007848612
"447",-81.633888999999996,28.110555999999999,"Tracy, Lake","284292","78686025",2012/08/24,"2","00292392",Lake Tracy,0.40402307000,124.00000000000,"03100101004251","390","39009","1000000",0.03608804284,0.00003710241
"627",-81.966110999999998,27.921666999999999,Carter Road,"459789",{74D37C8A-5900-47E6-B96A-2E61C0B1C899},2015/04/06,"2",,,0.25547558000,0.00000000000,,"466","46600","100000",0.09311322899,0.00002342079
"432",-81.725600000000000,28.102699999999999,Swoope Lake,"89821","78686067",2012/08/24,"2","00291973",Lake Swoope,0.33658792000,131.00000000000,"03100101004259","390","39009","1000000",0.02769791112,0.00003090708
"106",-81.765799999999999,28.024580000000000,Deer Lake,"255355","78592049",2012/08/24,"2","00281459",Lake Deer,0.48710225000,0.00000000000,"03100101004337","390","39004","1000000",0.02522128327,0.00004469705
"168",-81.708200000000005,28.091899999999999,"Haines, Lake","245822","78686099",2012/08/24,"2","00283592",Lake Haines,2.71809596000,128.00000000000,"03100101004261","390","39009","5000000",0.08661435119,0.00024956644
"154",-81.686396000000002,27.841477000000001,"Gator, Lake","125607","78582149",2012/11/02,"2","00282986",Gator Lake,0.44952252000,130.00000000000,"03100101004579","390","39009","1000000",0.02675208586,0.00004117989
"180",-81.419210000000007,28.025310000000001,"Hatchineha, Lake","245560","112041581",2013/10/19,"2","00294032",Lake Hatchineha,23.76502742000,15.80000000000,"03090101034155","390","39009","5000000",0.38837145992,0.00218069591
"302",-81.739109999999997,28.039960000000001,"Mirror, Lake","222058","78686287",2012/08/24,"2","00286985",Lake Mirror,0.51351244000,131.00000000000,"03100101004325","390","39009","1000000",0.02528652794,0.00004712564
"404",-81.728333000000006,28.031943999999999,"Silver, Lake","231066","78686311",2012/08/24,"2","00291141",Lake Silver,0.21440602000,145.00000000000,"03100101004329","390","39009","500000",0.01585441243,0.00001967527
"279",-81.764899999999997,28.076599999999999,"Mariana, Lake","33557","78591457",2012/08/24,"2","00286421",Lake Sanitary,2.08259654000,0.00000000000,"03100101004281","390","39004","2000000",0.07952212003,0.00019118821
"412",-81.735820000000004,28.038750000000000,"Spring, Lake","235621","78686293",2012/08/24,"2","00291545",Spring Lake,0.09931823000,131.00000000000,"03100101004324","390","39009","1000000",0.01084583635,0.00000911459
"315",-81.670180000000002,27.997990000000001,"Ned, Lake","105056","78690655",2012/11/02,"2","00287566",Ned Lake,0.29354719000,131.00000000000,"03100101004356","390","39009","500000",0.02431993246,0.00002692898
"390",-81.774000000000001,28.007700000000000,"Sears, Lake","182315","78591697",2012/11/02,"2","00290799",Sears Lake,0.30825496000,0.00000000000,"03100101004359","390","39004","500000",0.01899357092,0.00002828112
"197",-81.964439999999996,28.036200000000001,"Hunter, Lake","470765","41960329",2009/09/10,"2","00284407",Lake Hunter,0.37000000000,160.00000000000,"03100205001373","390","39009","1000000",0.02304703311,0.00003392276
"405",-81.716489999999993,28.062030000000000,Smart Lake,"139318","78686221",2012/08/24,"2","00291238",Lake Smart,1.06773130000,128.00000000000,"03100101004297","390","39009","5000000",0.04371215085,0.00009800538
"441",-81.779830000000004,28.010929999999998,"Thomas, Lake","284237","78592069",2012/08/24,"2","00292207",Thomas Lake,0.24070438000,0.00000000000,"03100101004355","390","39004","500000",0.01690379068,0.00002208432
"629",-81.705832999999998,28.017778000000000,Link Lake,"245820","78686689",2012/08/24,"2","00285565",Lake Link,0.11052317000,128.00000000000,"03100101004335","390","39009","1000000",0.01152934172,0.00001014099
"630",-81.711111000000002,28.016389000000000,Otis Lake,"191938","78686415",2012/11/02,"2","00288273",Lake Otis,0.56356482000,128.00000000000,"03100101004336","390","39009","2000000",0.04346219537,0.00005170834
"427",-81.695040000000006,27.835149999999999,"Surveyors, Lake","177325","78583051",2012/11/02,"2","00291898",Surveyors Lake,1.13035219000,131.00000000000,"03100101004596","390","39009","1000000",0.05515150247,0.00010354338
"475",-81.399230000000003,27.816859999999998,"Weohyakapka, Lake","430377","120024290",2013/10/19,"2","00294192",Lake Weohyakapka,30.54971344000,18.90000000000,"03090101035123","390","39009","5000000",0.20598311731,0.00279808119
"628",-81.778333000000003,27.989722000000000,Grassy Lake,"14558","78597813",2012/08/24,"2","00283322",Grassy Lake,0.21978495000,134.00000000000,"03100101004381","390","39009","500000",0.02101970341,0.00002016113
"130",-81.709900000000005,28.026599999999998,"Elbert, Lake","191937","78686329",2012/08/24,"2","00282136",Lake Elbert,0.68485121000,135.00000000000,"03100101004334","390","39009","1000000",0.03671021130,0.00006284295
"238",-81.813000000000002,28.068059999999999,"Lena, Lake","162166","78591485",2012/08/24,"2","00285460",Lake Lena,0.83501908000,0.00000000000,"03100101004311","390","39004","2000000",0.03178695671,0.00007665031
"214",-81.763999999999996,28.058399999999999,"Jessie, Lake","162167","78591531",2013/02/20,"2","00284779",Lake Jessie,0.72947681000,0.00000000000,"03100101004317","390","39004","1000000",0.03107493371,0.00006695717
"51",-81.706100000000006,28.040299999999998,Buckeye Lake,"187286","78686265",2012/08/24,"2","00279594",Lake Buckeye,0.28334610000,128.00000000000,"03100101004316","390","39009","500000",0.02216426199,0.00002600365
"179",-81.743300000000005,28.055800000000001,"Hartridge, Lake","198013","78690617",2013/02/20,"2","00283788",Lake Hartridge,1.77029234000,0.00000000000,"03100101005119","390","39004","2000000",0.05799120867,0.00016248812
"193",-82.615779000000003,28.787307999999999,Homosassa River,,,,,,,,,,,,,,
"327",-80.814899999999994,26.953047999999999,"Okeechobee, Lake","446044","120024129",2013/02/19,"2","00307550",Lake Okeechobee,1296.12021059000,4.60000000000,"03090201000436","390","39009","5000000",2.39478614485,0.11780043902
"357",-81.907899000000000,30.306187999999999,Pope Duval East FMA,"159976","134187659",2015/12/23,"2",,,0.03612320000,0.00000000000,"03070204000871","436","43615","250000",0.01300968914,0.00000338763
"358",-81.923173000000006,30.304777000000001,Pope Duval West FMA,"277740","134187671",2015/12/23,"2",,,0.02546578000,0.00000000000,"03070204006753","436","43615","100000",0.00758277224,0.00000238815
"220",-81.433149999999998,27.388190000000002,Josephine Creek,"425420","112049879",2014/09/09,"2","00284942",Lake Josephine,5.15577169000,21.60000000000,"03090101038240","390","39009","2000000",0.14544789700,0.00047043908
"8",-82.632367000000002,30.175000000000001,Alligator Lake,"137649","113627403",2008/06/27,"2","00305208",Alligator Lake,0.69300000000,0.00000000000,"03110206000619","390","39004","1000000",0.09484557220,0.00006491002
"375",-82.159000000000006,29.922499999999999,Rowell Lake,"545563","113641533",2019/04/16,"2","00290019",Lake Rowell,1.42582830000,132.00000000000,"03110206000706","390","39009","2000000",0.05913280358,0.00013320339
"305",-82.644000000000005,30.185549999999999,Montgomery Lake FMA,"88309","113624181",2008/06/27,"2","00294414",Lake Hamburg,0.17200000000,128.00000000000,"03110206000613","390","39009","500000",0.02016532923,0.00001610834
"92",-82.153700000000001,29.950082999999999,Crosby Lake,"545777","113641251",2019/04/16,"2","00281084",Lake Crosby,2.16304047000,133.00000000000,"03110206000669","390","39009","2000000",0.06782719045,0.00020211965
"56",-82.338599000000002,30.034548000000001,"Butler, Lake","151625","113627477",2014/11/04,"2","00279740",Butler Lake,1.76416830000,132.00000000000,"03110206010856","390","39009","2000000",0.04821945474,0.00016499640
"135",-81.704599999999999,27.984200000000001,"Eloise, Lake","156866","78690665",2012/11/02,"2","00282184",Lake Eloise,4.68009852000,131.00000000000,"03100101004357","390","39009","5000000",0.10493703091,0.00042928653
"484",-81.681899999999999,27.974599999999999,"Winterset, Lake","89781","78622001",2012/11/02,"2","00293430",Lake Winterset,2.20168090000,131.00000000000,"03100101004383","390","39009","2000000",0.06664910651,0.00020193302
"216",-81.939959999999999,27.998419999999999,"John Wood, Lake","125704","78690641",2013/02/20,"2","00284847",Lake John,0.39898093000,0.00000000000,"03100101025086","390","39004","1000000",0.08733329108,0.00003660293
"46",-81.925299999999993,28.037800000000001,"Bonny, Lake","171535","78690621",2012/08/24,"2","00279245",Lake Bonny,0.89651280000,0.00000000000,"03100101004351","390","39004","1000000",0.09222038881,0.00008227351
"233",-81.265609999999995,27.914449999999999,"Kissimmee, Lake","428172","120024288",2014/04/24,"2","00295796",Lake Kissimmee,127.00387936000,14.90000000000,"03090101034343","390","39009","5000000",1.17971426516,0.01164186642
"429",-82.930400000000006,30.302828999999999,Suwannee Lake FMA,"512287","99329629",2015/09/01,"2",,,0.21990073000,0.00000000000,"03110205000656","390","39004","5000000",0.02283549917,0.00002062148
"483",-81.767560000000003,28.545890000000000,"Winona, Lake","147844","112683812",2020/05/28,"2","00293414",Lake Winona,0.29376717000,0.00000000000,"03080102005525","390","39000","500000",0.03782664995,0.00002708591
"486",-83.181023999999994,30.410717000000002,Withlacoochee River,,,,,,,,,,,,,,
"313",-83.447410000000005,30.481410000000000,Mystic Lake,,,,,,,,,,,,,,
"298",-81.358417000000003,28.630883000000001,"Minnehaha, Lake","153256","107718387",2015/05/06,"2","00286960",Lake Minnehaha,0.39656763000,66.00000000000,"03080101010103","390","39009","1000000",0.02584301684,0.00003659334
"613",-84.632420999999994,30.630278000000001,Laurie Lake,"391653",{3641904A-C344-4A00-9B91-729524E9C23B},2015/08/06,"2",,,0.02675488000,0.00000000000,"03120003008214","436","43600","100000",0.00912008902,0.00000251728
"633",-81.416810999999996,28.134166000000000,"Russell, Lake","428763","112040099",2009/09/10,"2","00290080",Lake Russell,3.01900000000,16.80000000000,"03090101033525","390","39009","5000000",0.07055417915,0.00027727546
"636",-80.821389999999994,27.276689999999999,Upper Taylor Creek,,,,,,,,,,,,,,
"232",-81.197582999999995,27.801624000000000,Kissimmee River,,,,,,,,,,,,,,
"96",-81.323660000000004,28.079400000000000,Cypress Lake,"428477","112040787",2013/08/19,"2","00281219",Cypress Lake,12.91782787000,15.80000000000,"03090101033771","390","39009","5000000",0.15353283579,0.00118590702
"211",-81.164420000000007,27.909530000000000,"Jackson, Lake","425142","112042187",2014/04/24,"2","00284691",Lake Jackson,4.04150784000,15.50000000000,"03090101034629","390","39009","5000000",0.09861401522,0.00037046124
"476",-81.399249999999995,28.269330000000000,"Tohopekaliga, Lake","13616","112039563",2014/11/03,"2","00292327",Lake Tohopekaliga,75.38271464000,16.20000000000,"03090101031397","390","39009","5000000",0.78646704647,0.00692855170
"637",-80.291606999999999,26.854168999999999,C-XVIII watershed,"366431",{FCE3FEF7-67F6-4182-9AF4-4FB408949D21},2014/04/17,"2",,,11.36700476000,0.00000000000,,"466","46600","1000000",1.12621486737,0.00103249243
"240",-82.364940000000004,28.629280000000001,"Lindsey, Lake","515628","68039931",2009/07/02,"2","00285564",Lake Lindsey,0.46700000000,0.00000000000,"03100208003112","390","39004","1000000",0.03065778070,0.00004307872
"229",-86.644009999999994,30.895659999999999,Karick Lake FMA,"526524","40981775",2018/06/11,"2","00305895",Karick Lake,0.25925486000,0.00000000000,"03140103002232","390","39004","500000",0.04632660364,0.00002445848
"322",-82.449016999999998,30.237632999999999,Ocean Pond,"464255","134188113",2005/04/17,"2","00306142",Ocean Pond,7.29900000000,46.90000000000,"03070204000891","390","39009","2000000",0.09947144992,0.00068395382
"123",-81.284080000000003,28.306130000000000,East Lake Tohopekaliga,"429039","112035523",2013/08/19,"2","02082902",East Lake Tohopekaliga,47.51796254000,0.00000000000,"03090101030159","390","39004","5000000",0.38782287275,0.00437112365
"64",-81.190939999999998,28.279290000000000,"Center, Lake","430190","112034921",2013/08/19,"2","00280245",Lake Center,1.65347684000,19.20000000000,"03090101031042","390","39009","2000000",0.06290893061,0.00015207563
"157",-81.246769999999998,28.140560000000001,"Gentry, Lake","425718","112039679",2013/08/19,"2","00283023",Lake Gentry,7.28166119000,18.90000000000,"03090101033134","390","39009","5000000",0.12416122235,0.00066887575
"378",-81.255200000000002,28.258710000000001,"Runnymede, Lake","425814","112035913",2009/09/10,"2","00290057",Lake Runnymede,1.34100000000,0.00000000000,"03090101031536","390","39004","2000000",0.06281284556,0.00012329838
"153",-81.368437999999998,28.491032000000001,"Gatlin, Lake","426742",{DC7D0B5A-4813-48FC-8DD3-2FBDA9A2E0AE},2013/07/10,"2","00282967",Lake Gatlin,0.27698863000,26.20000000000,"03090101044870","390","39009","500000",0.04539053221,0.00002552561
"91",-84.669308999999998,29.874202000000000,Crooked River,,,,,,,,,,,,,,
"620",-85.077088000000003,29.743472000000001,Huckleberry Creek,"73249","130056699",2018/10/03,"2",,,0.10650346000,0.00000000000,,"466","46600","100000",0.03735922300,0.00000993249
"620",-85.077088000000003,29.743472000000001,Huckleberry Creek,"166548","130056583",2018/10/03,"2",,,0.95160462000,0.00000000000,,"466","46600","250000",0.17994940098,0.00008875830
"283",-81.178550000000001,28.380929999999999,"Mary Jane, Lake","429446","112031063",2013/07/10,"2","00286482",Lake Mary Jane,4.53025410000,18.30000000000,"03090101029242","390","39009","5000000",0.13768002769,0.00041702653
"178",-81.210750000000004,28.381750000000000,"Hart, Lake","430522","112031311",2013/07/10,"2","00283786",Lake Hart,7.61349337000,17.70000000000,"03090101029204","390","39009","2000000",0.18085913855,0.00070089225
"642",-80.162559000000002,26.658594000000001,"Okeeheelee Park, Lake","449967","138368906",2015/02/05,"2",,,0.49861233000,0.00000000000,"03090206044030","436","43603","1000000",0.09446118076,0.00004520395
"632",-80.387967000000003,26.868158999999999,Corbett WMA ponds,,,,,,,,,,,,,,
"314",-81.664537999999993,30.589137999999998,Nassau River,"465642","108144683",2015/01/02,"2",,,2.20452594000,0.00000000000,,"466","46600","500000",0.14474347976,0.00020731516
"149",-81.803888999999998,27.760000000000002,Ft. Meade Pits,"121163","78641041",2012/11/02,"2",,,0.10039834000,0.00000000000,"03100101004655","390","39004","500000",0.02264570575,0.00000919060
"20",-81.808359999999993,28.073660000000000,"Ariana, Lake","60632","78592241",2012/08/24,"2","00277946",Lake Ariana,4.12303824000,0.00000000000,"03100101004302","390","39004","2000000",0.07454776847,0.00037851857
"40",-81.773470000000003,28.045770000000001,"Blue, Lake","9679","78592009",2012/08/24,"2","00279079",Lake Blue,0.21874252000,0.00000000000,"03100101004321","390","39004","500000",0.01600383219,0.00002007614
"308",-82.058130000000006,29.562220000000000,Moss Lee Lake,"124442","112635658",2020/05/28,"2","00287176",Moss Lee Lake,0.33426905000,0.00000000000,"03080102004002","390","39000","1000000",0.03219571167,0.00003111800
"171",-82.593129000000005,28.821783000000000,Halls River,,,,,,,,,,,,,,
"626",-80.727603000000002,27.845051999999999,TM Goodwin WMA,"59906","107740959",2016/02/24,"2",,,37.21421969000,0.00000000000,,"466","46600","2000000",0.53621936189,0.00340965377
"59",-81.754000000000005,28.039100000000001,Cannon Lake,"56083","78690623",2012/08/24,"2","00279989",Lake Cannon,1.34420531000,0.00000000000,"03100101004320","390","39004","2000000",0.03974054707,0.00012336006
"285",-81.721310000000003,28.037680000000002,"Maude, Lake","111052","78686289",2012/08/24,"2","00286529",Lake Maude,0.21667206000,140.00000000000,"03100101004323","390","39009","500000",0.01655317993,0.00001988463
"349",-81.522221999999999,27.975000000000001,"Pierce, Lake","422741","112041999",2013/10/19,"2","00288797",Lake Pierce,15.60450793000,23.20000000000,"03090101034386","390","39009","5000000",0.30194046324,0.00143127223
"143",-81.346270000000004,28.270869999999999,Fish Lake,"430542","112035961",2013/08/19,"2","00282485",Fish Lake,0.91721793000,17.10000000000,"03090101031563","390","39009","1000000",0.04234925363,0.00008435289
"448",-81.492419999999996,26.420420000000000,"Trafford, Lake","436934","117029829",2016/05/04,"2","00292393",Lake Trafford,6.59818196000,19.00000000000,"03090204006541","390","39009","2000000",0.11278091614,0.00059698628
"265",-80.175366999999994,26.932825000000001,Loxahatchee River,"448405","138383117",2013/10/30,"2",,,0.36494766000,0.00000000000,,"466","46600","250000",0.06260380791,0.00003316305
"453",-81.337050000000005,28.539819999999999,"Underhill, Lake","428280","112027751",2011/04/15,"2","00292644",Lake Underhill,0.56800000000,29.90000000000,"03090101028013","390","39009","5000000",0.03842258726,0.00005234447
"288",-82.337419999999995,28.646470000000001,McKethan Lake,"519944","68039793",2009/07/02,"2","00286631",McKethan Lake,0.13200000000,64.00000000000,"03100208003037","390","39009","500000",0.02078671134,0.00001218967
"635",-80.611912000000004,26.086359000000002,Water Conservation Areas,"381702",{B27601A0-A28E-4B39-8978-CEBDD7E8E868},2017/04/13,"2","00307628",The Everglades,1365.55123891000,0.00000000000,,"466","46600","5000000",4.13190020941,0.12310741753
"278",-81.066440000000000,27.872479999999999,"Marian, Lake","428066","120024286",2016/05/22,"2","00286420",Lake Marian,18.88145348000,18.00000000000,"03090101034694","390","39009","5000000",0.27672676304,0.00173027604
"9",-81.204440000000005,28.214870000000001,Alligator Lake,"95105","112037599",2013/08/19,"2","00277794",Alligator Lake,13.90455510000,19.50000000000,"03090101031731","390","39009","5000000",0.21743103590,0.00127804797
"254",-81.186310000000006,28.244160000000001,"Lizzie, Lake","430873","112035917",2013/08/19,"2","00285895",Lake Lizzie,3.29556090000,19.20000000000,"03090101031517","390","39009","5000000",0.08045877166,0.00030301162
"311",-84.308499999999995,30.367540000000002,"Munson, Lake","456647","129755779",2008/03/26,"2","00306093",Lake Munson,1.02400000000,7.30000000000,"03120001001001","390","39009","5000000",0.08961915712,0.00009608421
"105",-81.979259999999996,28.835030000000000,"Deaton, Lake","521183","68038947",2013/03/20,"2","00281407",Lake Deaton,2.14517331000,63.00000000000,"03100208002509","390","39009","2000000",0.05916936592,0.00019832275
"338",-82.397800000000004,30.117049999999999,Palestine Lake,"463696","134188141",2010/11/08,"2","00306189",Palestine Lake,3.73100000000,43.30000000000,"03070204000892","390","39009","2000000",0.08739885362,0.00034924605
"338",-82.397800000000004,30.117049999999999,Palestine Lake,"464101","134198079",2005/04/16,"2",,,1.16700000000,0.00000000000,,"466","46600","250000",0.11112582816,0.00010927790
"338",-82.397800000000004,30.117049999999999,Palestine Lake,"276340",{E06064E0-18D3-4C30-A964-3D3E3601D7CD},2019/10/16,"2",,,0.44520121000,0.00000000000,,"466","46600","0",0.06123387058,0.00004167222
"338",-82.397800000000004,30.117049999999999,Palestine Lake,"276462",{497BF8DE-CBEE-43BB-BB01-CA05B7B4E483},2019/10/16,"2",,,1.27670472000,0.00000000000,"03070204009149","390","39000","0",0.04453297554,0.00011949877
"383",-82.188500000000005,29.927167000000001,Sampson Lake,"51440","113641339",2019/04/16,"2","00290460",Lake Sampson,8.02296856000,132.00000000000,"03110206000708","390","39009","5000000",0.17668422558,0.00074957264
"97",-81.659340999999998,27.996184000000000,"Daisy, Lake","138891","78690653",2012/11/02,"2","00281260",Lake Daisy,0.54440629000,131.00000000000,"03100101004343","390","39009","1000000",0.02844426838,0.00004994207
"90",-81.565430000000006,27.822900000000001,Crooked Lake,"429790","112043901",2014/04/24,"2","00293976",Crooked Lake,16.88579234000,36.00000000000,"03090101043198","390","39009","5000000",0.33187744969,0.00154651251
"222",-81.803299999999993,28.129600000000000,"Juliana, Lake","520433","68087837",2013/06/03,"2","00284964",Lake Juliana,3.74047318000,130.00000000000,"03100208003616","390","39009","2000000",0.08936582208,0.00034354946
"619",-86.541802000000004,30.463567999999999,Eglin Lakes FMA,,,,,,,,,,,,,,
"128",-81.158136999999996,28.617512999999999,Econlockhatchee River,"15343","107817373",2015/07/13,"2",,,5.16724542000,0.00000000000,,"466","46600","1000000",0.43690950072,0.00047678264
"371",-81.806732999999994,29.521400000000000,Rodman Reservoir,"216294","112699084",2020/05/28,"2","00306146",Lake Ocklawaha,23.09608147000,0.00000000000,"03080102029888","390","39000","5000000",0.52695060113,0.00214911013
"460",-84.212479999999999,30.150220000000001,Wakulla River,,,,,,,,,,,,,,
"415",-84.149299999999997,30.275559999999999,St. Marks River,"266788",{2B6FC8E8-7A11-4D40-95AD-29E0C2DC52E9},2020/10/27,"2",,,1.29932436000,0.00000000000,,"466","46600","0",0.21223732340,0.00012179197
"289",-81.753404000000003,27.967770000000002,"McLeod, Lake","9044","78690667",2012/11/02,"2","00286641",Lake McLeod,1.81693538000,0.00000000000,"03100101004410","390","39004","2000000",0.04811876546,0.00016663582
"295",-81.268632999999994,29.058983000000001,Miller Lake,"546362","125971432",2004/09/27,"2","00286920",Miller Lake,0.03200000000,0.00000000000,"03080103003582","390","39004","500000",0.00812447574,0.00000299060
"181",-81.230082999999993,28.984600000000000,"Helen, Lake","148608","107778387",2009/09/10,"2","00283868",Lake Helen,0.10500000000,45.00000000000,"03080101009219","390","39009","500000",0.02003280570,0.00000972707
"176",-81.047809999999998,28.781430000000000,"Harney, Lake","134009","107775511",2014/10/16,"2","00283749",Lake Harney,25.10096200000,0.00000000000,"03080101009634","390","39004","5000000",0.32267648490,0.00231889334
"648",-85.577326999999997,30.289655000000000,Panama City Crayfish Wetlands,"528208","122162858",2017/01/15,"2",,,0.12093933000,0.00000000000,,"466","46600","100000",0.02322113142,0.00001133980
"643",-84.647644000000000,30.188250000000000,Apalachicola NF Ephemeral Ponds,,,,,,,,,,,,,,
"644",-86.787323000000001,30.417584000000002,Eglin Ephemeral Ponds,"528994","32407661",2002/01/28,"2",,,0.02500000000,0.00000000000,,"466","46600","50000",0.00889436774,0.00000235323
"303",-81.339766999999995,28.594066999999999,"Mizell, Lake","279501","107806865",2009/09/10,"2","00287022",Lake Mizell,0.25100000000,66.00000000000,"03080101010205","390","39009","500000",0.02251463067,0.00002317282
"17",-81.363789999999995,27.341780000000000,"Apthorpe, Lake","430177","112050101",2009/09/10,"2","00277926",Lake Apthorp,0.86700000000,21.00000000000,"03090101038400","390","39009","1000000",0.05412476858,0.00007910466
"114",-81.442571999999998,27.516320000000000,Dinner Lake,"430291","112048227",2003/11/20,"2","00281572",Dinner Lake,1.51300000000,30.80000000000,"03090101037591","390","39009","2000000",0.05278471720,0.00013817285
"382",-81.681185999999997,29.324448000000000,Salt Springs Run,"317424","107881197",2015/02/13,"2","00305722",Lake George,175.92218149000,0.00000000000,"03080101028890","390","39004","5000000",0.65598585891,0.01633394855
"382",-81.681185999999997,29.324448000000000,Salt Springs Run,"148997","107840879",2015/02/13,"2",,,3.69651178000,0.00000000000,,"466","46600","500000",0.27125626724,0.00034335455
"382",-81.681185999999997,29.324448000000000,Salt Springs Run,"151481",{E7CE73F7-A448-4831-B350-7ECB20780E06},2020/03/18,"2",,,24.72638398000,0.00000000000,,"466","46600","2000000",1.53010804465,0.00229877480
"316",-81.402732999999998,29.113150000000001,Nelson Springs Run,"216455","107841133",2015/02/13,"2",,,25.04468138000,0.00000000000,,"466","46600","2000000",0.75973675486,0.00232093698
"316",-81.402732999999998,29.113150000000001,Nelson Springs Run,"5010","107791393",2015/02/13,"2","00306612",Lake Woodruff,9.05046287000,0.00000000000,"03080101036078","390","39004","5000000",0.12150530661,0.00083880721
"391",-81.481639999999999,27.533030000000000,"Sebring, Lake","429337","112048259",2014/09/09,"2","00290807",Lake Sebring,1.87488581000,32.60000000000,"03090101037539","390","39009","2000000",0.05056176862,0.00017127226
"353",-81.365050999999994,27.242106000000000,"Placid, Lake","427274","112050757",2014/09/09,"2","00289014",Lake Placid,13.73273063000,28.00000000000,"03090101038576","390","39009","5000000",0.17118515458,0.00125133173
"139",-81.628332999999998,28.095278000000000,Eva Lake,"89824","78690605",2012/08/24,"2","00294617",Lake Eva,0.61178952000,121.00000000000,"03100101004258","390","39009","1000000",0.04175373293,0.00005617410
"364",-81.403673999999995,27.432625999999999,Red Beach Lake,"430774","112049453",2014/09/09,"2","00289535",Red Beach Lake,1.29142435000,23.20000000000,"03090101038108","390","39009","2000000",0.05108849426,0.00011787315
"207",-81.380759999999995,28.564679999999999,"Ivanhoe, Lake","156860","107777883",2015/07/13,"2","00284639",Lake Ivanhoe,0.44418428000,0.00000000000,"03080101028856","390","39011","1000000",0.04529236349,0.00004096096
"455",-85.895949999999999,30.950019999999999,Victor Lake FMA,"535160","63005285",2002/12/03,"2",,,0.48500000000,144.00000000000,"03140203001758","390","39009","1000000",0.04758992101,0.00004574271
"624",-81.395916999999997,27.278010999999999,Catfish Creek,"172101","112050499",2009/09/10,"2","00284976",Lake June in Winter,15.09100000000,22.30000000000,"03090101038458","390","39009","5000000",0.21195121585,0.00137580425
"264",-82.001356000000001,29.847521000000000,Lowery Lake FMA,"209354","125973857",2019/02/12,"2","00308453",Lowry Lake,5.04926275000,132.00000000000,"03080103003607","390","39009","2000000",0.08713828862,0.00047137079
"271",-82.017769000000001,29.823792000000001,Magnolia Lake FMA,"262050","125957288",2004/09/27,"2","00286301",Magnolia Lake,0.82100000000,125.00000000000,"03080103003100","390","39009","1000000",0.03282119645,0.00007660686
"101",-85.641705999999999,30.244081000000001,Davis Lake,"527644","122175605",2004/06/28,"2",,,0.04200000000,0.00000000000,"03140101005110","390","39004","250000",0.01274652455,0.00000392417
"62",-81.428601000000000,27.336838000000000,"Carrie, Lake","423763","112050187",2014/09/09,"2","00280072",Lake Carrie,0.27669243000,23.20000000000,"03090101038437","390","39009","500000",0.01963578646,0.00002523347
"83",-81.182239999999993,28.266570000000002,Coon Lake,"427025","112035421",2003/11/20,"2","00280767",Coon Lake,0.61100000000,19.20000000000,"03090101031343","390","39009","5000000",0.03007546565,0.00005617199
"653",-80.280579000000003,26.838518000000001,Mecca Farms,,,,,,,,,,,,,,
"14",-85.048389999999998,29.777899999999999,Apalachicola River,,,,,,,,,,,,,,
"310",-81.843869999999995,28.179500000000001,Mud Lake,"520513","68083645",2013/06/03,"2","00287403",Mud Lake,0.56205650000,0.00000000000,"03100208003598","390","39004","1000000",0.05130025030,0.00005164287
"310",-81.843869999999995,28.179500000000001,Mud Lake,"520813","68084009",2013/06/03,"2",,,0.16530324000,0.00000000000,,"466","46600","100000",0.03007074388,0.00001518945
"87",-81.773579999999995,28.506010000000000,Crescent Lake,"143149","167181006",2010/05/05,"2","00281038",Crescent Lake,0.61300000000,0.00000000000,"03080102026058","390","39004","1000000",0.04785478912,0.00005646299
"395",-84.927419999999998,30.754940000000001,"Seminole, Lake (Fl Section)",,,,,,,,,,,,,,
"304",-81.270010999999997,28.840070999999998,"Monroe, Lake","110168","107881199",2015/05/06,"2","00287074",Lake Monroe,35.49635575000,0.00000000000,"03080101028889","390","39004","5000000",0.51214516821,0.00328177418
"487",-81.408582999999993,29.108750000000001,"Woodruf, Lake","5010","107791393",2015/02/13,"2","00306612",Lake Woodruff,9.05046287000,0.00000000000,"03080101036078","390","39004","5000000",0.12150530661,0.00083880721
"424",-87.290970000000002,30.965260000000001,Stone Lake,"536866","120024421",2004/03/16,"2","00291726",Lake Stone,0.42500000000,0.00000000000,"03140305001187","390","39004","1000000",0.06306350654,0.00004007791
"410",-81.265450000000001,29.040683000000001,South Lake Talmadge,"291092","125971327",2014/09/19,"2","00298074",South Lake Talmadge,0.23983968000,55.00000000000,"03080103003593","390","39009","500000",0.01901122673,0.00002221623
"111",-81.481890000000007,29.106629999999999,"Dexter, Lake","59771","107775079",2014/09/05,"2","00305576",Lake Dexter,8.18112790000,0.00000000000,"03080101042565","390","39004","5000000",0.26464528963,0.00075831729
"328",-81.902619999999999,29.379220000000000,Ocklawaha River,"151480",{F9EA8A8D-99BE-4914-AD63-3DC61E9070DE},2020/03/18,"2","00306146",Lake Ocklawaha,8.34085117000,0.00000000000,"03080102037785","466","46600","5000000",0.46614228418,0.00077548140
"270",-82.653667999999996,27.738681000000000,"Maggiore, Lake","548305","68768614",2019/04/22,"2","00286284",Lake Maggiore,1.50942245000,0.00000000000,"03100206001366","390","39004","2000000",0.05520347028,0.00013814550
"668",-82.515935999999996,27.877889000000000,Bobby Hicks Pond,"499710","68755920",2019/06/18,"2",,,0.09483244000,0.00000000000,"03100206001472","436","43600","250000",0.01353600377,0.00000869027
"77",-81.548333000000000,27.742500000000000,"Clinch, Lake","430550","112044667",2014/04/24,"2","00294405",Lake Clinch,4.93489499000,31.40000000000,"03090101035740","390","39009","2000000",0.09291750293,0.00045167507
"656",-80.287492000000000,26.967101000000000,Hungryland WEA,"417529",{F79BB8CC-4B7E-46A2-A841-8D85B3677C5A},2018/12/17,"2",,,5.57422554000,0.00000000000,,"466","46600","1000000",0.59993823120,0.00050675975
"309",-82.311120000000003,28.479659999999999,Mountain Lake,"413396",{36C5AA6F-282D-43DF-B706-228CA2DD8C9E},2018/10/05,"2",,,0.15695930000,0.00000000000,"03100207020703","390","39004","500000",0.02160405304,0.00001446281
"191",-81.716409999999996,28.940960000000000,Holly Lake,"138591","112690712",2020/05/28,"2","00305825",Holly Lake,0.40162859000,0.00000000000,"03080102004831","390","39000","1000000",0.02831595078,0.00003716806
"166",-81.345710999999994,30.109604000000001,Guana River,"50264","125551669",2014/06/28,"2",,,3.59619484000,0.00000000000,,"466","46600","500000",0.26559613194,0.00033664605
"654",-81.881161000000006,29.677682999999998,"Grandin, Lake","21384","125973884",2014/03/21,"2","00283279",Lake Grandin,1.39659273000,81.00000000000,"03080103003261","390","39009","2000000",0.05586223501,0.00013016302
"387",-80.263417000000004,27.299340999999998,Savannas Preserve State Park,"98139","138377133",2018/08/23,"2",,,1.63698187000,0.00000000000,,"466","46600","500000",0.17965617453,0.00014925025
"71",-85.235703000000001,30.819828999999999,Chipola River,"185993","85826334",2020/04/15,"2",,,11.87532137000,0.00000000000,,"466","46600","5000000",0.64090132321,0.00111948920
"659",-80.407330000000002,25.603629000000002,Zoo Miami Lakes,"442179","138375897",2014/06/16,"2",,,0.08135345000,2.00000000000,"03090206050114","436","43600","250000",0.01494433721,0.00000731048
"478",-81.628979999999999,29.163122000000001,Wildcat Lake,"28030","107776017",2011/07/19,"2","00306596",Wildcat Lake,1.24500000000,44.00000000000,"03080101009072","390","39009","1000000",0.08945859174,0.00011547110
"346",-82.897440000000003,30.244800000000001,Peacock Lake,,,,,,,,,,,,,,
"660",-81.925068999999993,29.113458000000001,Ocklawaha Prairie Restoration Area,"32733","112653532",2010/03/10,"2",,,6.42000000000,0.00000000000,,"466","46600","1000000",0.15793654865,0.00059510160
"26",-81.623249999999999,29.122760000000000,Beakman Lake,"259309","164161195",2015/02/13,"2","00305245",Beakman Lake,0.80606102000,0.00000000000,"03080101045660","390","39004","1000000",0.06884244046,0.00007472436
"98",-81.621570000000006,28.901440000000001,"Dal Housie, Lake","95495","107775343",2013/06/03,"2","00305546",Lake Dalhousie,1.01731786000,71.00000000000,"03080101009514","390","39009","1000000",0.03652353762,0.00009411112
"361",-80.962050000000005,28.605930000000001,Puzzle Lake,"266408","107750493",2015/05/06,"2",,,32.27896109000,0.00000000000,,"466","46600","2000000",0.78983742687,0.00297904607
"2",-81.819509999999994,28.175909999999998,"Agnes, Lake","520633","68083775",2013/06/03,"2","00277698",Lake Agnes,1.52519699000,132.00000000000,"03100208003604","390","39009","2000000",0.06089703320,0.00014013633
"612",-85.878860000000003,30.232766999999999,Frank Brown FMA,"527150",{B1693E56-1503-43C3-99ED-29AC6A009895},2016/08/05,"2",,,0.01198406000,0.00000000000,"03140101011256","436","43600","100000",0.00470777569,0.00000112304
"337",-81.784250000000000,28.551359999999999,"Palatlakaha, Lake","129698","167178835",2020/05/28,"2","00288384",Lake Palatlakaha,0.44051440000,0.00000000000,"03080102024393","390","39000","5000000",0.03534340250,0.00004061752
"1",-81.532280000000000,27.641410000000000,"Adelaide, Lake","425633","112046363",2014/09/09,"2","00277693",Lake Adelaide,0.38904971000,30.50000000000,"03090101036681","390","39009","1000000",0.02599471084,0.00003557573
"99",-81.510559999999998,27.632190000000001,Damon Lake,"429118","112046429",2009/09/10,"2","00281269",Lake Damon,1.11100000000,31.10000000000,"03090101036713","390","39009","1000000",0.03726082190,0.00010161582
"257",-81.483599999999996,27.579039999999999,"Lotela, Lake","425763","112047291",2016/05/22,"2","00286124",Lake Lotela,2.72460521000,32.30000000000,"03090101037060","390","39009","2000000",0.07912367287,0.00024900400
"239",-81.462310000000002,27.563120000000001,Letta Lake,"120971","112047587",2009/09/10,"2","00285472",Lake Letta,1.87400000000,30.20000000000,"03090101037209","390","39009","2000000",0.04902655429,0.00017121038
"655",-80.323319999999995,25.727080000000001,Tropical Park FMA,,,,,,,,,,,,,,
"72",-86.123289999999997,30.401900000000001,Choctawhatchee River,,,,,,,,,,,,,,
"915",-85.577198999999993,30.314496999999999,Bay County Salvinia Areas,"525839","122162771",2004/06/28,"2",,,0.01100000000,0.00000000000,"03140101004421","390","39004","100000",0.00483035754,0.00000106731
"184",-81.381619999999998,27.323139999999999,"Henry, Lake","430840","112050233",2014/01/12,"2","00283916",Lake Henry,0.27787114000,22.60000000000,"03090101038448","390","39009","500000",0.02404429181,0.00002533783
"657",-86.819371000000004,30.657001000000001,Garnier Creek,"119939",{AF4B6DBB-61AB-43FC-AB29-337FDE07874E},2019/04/29,"2",,,35.65321571000,0.00000000000,,"466","46600","2000000",2.09480887298,0.00335486586
"48",-81.196179999999998,28.168790000000001,Brick Lake,"423543","112038173",2013/08/19,"2","00279374",Brick Lake,2.59418455000,19.50000000000,"03090101032605","390","39009","2000000",0.07032079220,0.00023835453
"73",-80.948679999999996,28.617090000000001,Clark Lake,"246425","107842537",2015/07/13,"2",,,148.29640631000,0.00000000000,,"466","46600","5000000",4.77448968780,0.01367992451
"73",-80.948679999999996,28.617090000000001,Clark Lake,"376654",{A60D17C3-54B1-4D39-9CF8-C7C067AC9C95},2014/09/05,"2","00293968",Clark Lake,0.50947118000,0.00000000000,"03080101062442","390","39004","5000000",0.03776740144,0.00004700465
"259",-80.929879999999997,28.627340000000000,Loughman Lake,"246425","107842537",2015/07/13,"2",,,148.29640631000,0.00000000000,,"466","46600","5000000",4.77448968780,0.01367992451
"259",-80.929879999999997,28.627340000000000,Loughman Lake,"161363","107777621",2015/05/06,"2","00294062",Loughman Lake,2.64525565000,5.00000000000,"03080101009955","390","39009","5000000",0.20441687077,0.00024409409
"204",-81.476730000000003,27.648940000000000,"Isabell, Lake","134485","112046067",2009/09/10,"2","00284603",Lake Isabell,0.37700000000,28.30000000000,"03090101036520","390","39009","1000000",0.02344518298,0.00003451185
"164",-81.615579999999994,29.135169999999999,Grasshopper Lake,"181666","107776125",2011/07/19,"2","00306418",South Grasshopper Lake,0.79000000000,47.00000000000,"03080101009095","390","39009","1000000",0.09728181182,0.00007320626
"862",-82.312737999999996,29.578257000000001,Paynes Prairie,,,,,,,,,,,,,,
"186",-81.130274999999997,26.793506000000001,"Hicpochee, Lake","542457","83718279",2019/03/25,"2","00294033",Lake Hicpochee,0.58637626000,11.00000000000,"03090205025526","390","39009","5000000",0.04816921685,0.00005322211
"144",-81.137381000000005,26.950780999999999,Fisheating Creek,"177942","104253296",2015/03/10,"2",,,34.97574796000,0.00000000000,,"466","46600","2000000",1.40316219586,0.00317911330
"665",-81.768203999999997,26.202898000000001,Airport Pulling Road Canal,,,,,,,,,,,,,,
"428",-81.757819999999995,28.515260000000001,"Susan, Lake","292992","167181005",2010/05/05,"2","00291900",Lake Susan,0.35700000000,0.00000000000,"03080102026057","390","39004","5000000",0.03755438513,0.00003289138
"266",-81.851140000000001,28.603050000000000,"Lucy, Lake","124250","112688448",2020/05/28,"2","00286205",Lake Lucy,1.72386076000,0.00000000000,"03080102018190","390","39000","5000000",0.08310450018,0.00015902405
"351",-81.494471000000004,27.622031000000000,Pioneer Lake,"427392","112046617",2014/09/09,"2","00288982",Pioneer Lake,0.31242604000,30.80000000000,"03090101036810","390","39009","500000",0.01991394573,0.00002856453
"456",-81.495858999999996,27.613382999999999,"Viola, Lake","84587","112046749",2009/09/10,"2","00292777",Lake Viola,0.28000000000,34.10000000000,"03090101036875","390","39009","500000",0.01822914261,0.00002558269
"381",-80.910920000000004,28.655619999999999,Salt Lake,"225736","107712397",2015/05/06,"2","00290436",Salt Lake,1.71229913000,5.00000000000,"03080101009886","390","39009","5000000",0.17230772787,0.00015802952
"1194",-81.770448999999999,26.272396000000001,Cocohatchee Canal,,,,,,,,,,,,,,
"1229",-81.997780000000006,26.884350000000001,Jones Loop Rd Right-of-Way,,,,,,,,,,,,,,
"262",-81.498767000000001,29.322067000000001,Lower Lake Louise,"313013","107775869",2015/02/13,"2","00286168",Lower Lake Louise,0.94304974000,0.00000000000,"03080101008940","390","39004","1000000",0.07695072305,0.00008759896
"262",-81.498767000000001,29.322067000000001,Lower Lake Louise,"104715","107839655",2015/02/13,"2",,,0.09688686000,0.00000000000,,"466","46600","100000",0.01418540491,0.00000899865
"299",-81.768050000000002,28.567740000000001,"Minneola, Lake","129272","120024321",2020/05/28,"2","00294087",Lake Minneola,7.71716752000,0.00000000000,"03080102018355","390","39000","5000000",0.11002074447,0.00071172159
"646",-82.070786999999996,29.445668999999999,Orange Creek Conservation Area,,,,,,,,,,,,,,
"82",-81.807789999999997,28.591040000000000,"Cook, Lake","32522","167178897",2009/11/16,"2","00280734",Cook Lake,0.09500000000,0.00000000000,"03080102024394","390","39004","5000000",0.01213410272,0.00000874376
"480",-81.795000000000002,28.595109999999998,"Wilson, Lake","50308","167178898",2009/11/16,"2","00293379",Wilson Lake,0.13500000000,0.00000000000,"03080102024392","390","39004","5000000",0.01454736506,0.00001241472
"450",-81.168980000000005,28.258500000000002,Trout Lake,"425303","112035515",2003/11/20,"2","00292474",Trout Lake,1.08200000000,19.20000000000,"03090101031413","390","39009","5000000",0.05072402298,0.00009953059
"260",-81.732060000000004,28.479209999999998,Louisa Lake,"254554","112683926",2020/05/28,"2","00286136",Lake Louisa,12.81974894000,0.00000000000,"03080102005606","390","39000","5000000",0.14661451056,0.00118127565
"652",-80.734945999999994,27.896270999999999,TM Goodwin-Broadmoor Marsh,"59906","107740959",2016/02/24,"2",,,37.21421969000,0.00000000000,,"466","46600","2000000",0.53621936189,0.00340965377
"394",-82.779250000000005,27.860199999999999,"Seminole, Lake","138819","120024097",2019/02/01,"2","00290850",Lake Seminole,2.74431178000,0.00000000000,"03100207016047","436","43600","2000000",0.18238660313,0.00025144784
"1213",-81.517402000000004,26.474916000000000,Corkscrew Marsh,"50595","117083361",2019/03/25,"2","00280846",Corkscrew Swamp,125.21668859000,0.00000000000,,"466","46600","2000000",2.76315512935,0.01132682290
"866",-80.375832000000003,26.375758000000001,Everglades WMA,"50613","135211167",2016/12/27,"2","00307628",The Everglades,420.49467301000,0.00000000000,,"466","46600","5000000",0.89126970598,0.03801169743
"675",-80.840024999999997,26.396875999999999,Rotenberger WMA,"115003","135213405",2016/12/27,"2","00307628",The Everglades,116.69942520000,0.00000000000,,"466","46600","2000000",0.49641114434,0.01055609558
"1320",-81.336884999999995,27.366779999999999,Peace Pond,"402141",{30E7CEF6-D975-42FC-A5D5-3B4D2A9FBF5D},2016/05/22,"2",,,0.62528769000,0.00000000000,,"466","46600","250000",0.02823941910,0.00005703895
"58",-81.760767000000001,26.716600000000000,Caloosahatchee River,,,,,,,,,,,,,,
"277",-81.697400000000002,28.016100000000002,"Mariam, Lake","306946","78686379",2013/02/20,"2","00286418",Lake Mariam,0.73410533000,127.00000000000,"03100101005120","390","39009","1000000",0.03642521793,0.00006735638
"951",-81.880646999999996,29.667662000000000,Clearwater Lake,"141288","125961079",2014/03/21,"2","00280555",Clearwater Lake,0.14945094000,0.00000000000,"03080103003278","390","39004","500000",0.01461382746,0.00001392747
"452",-81.666110000000003,28.920140000000000,"Umatilla, Lake","125034","112690608",2020/05/28,"2","00306532",Lake Umatilla,0.68341307000,0.00000000000,"03080102004885","390","39000","1000000",0.05258641382,0.00006323228
"1326",-81.712778000000000,28.041667000000000,"Idyl, Lake","84812","78686643",2012/08/24,"2","00284465",Lake Idyl,0.07204226000,134.00000000000,"03100101004318","390","39009","250000",0.00945014807,0.00000661164
"195",-81.827430000000007,28.590720000000001,"Hunt, Lake","147790","167180956",2020/05/28,"2","00280361",Cherry Lake,1.88080836000,0.00000000000,"03080102026031","390","39000","5000000",0.08171734376,0.00017349550
"423",-81.838060999999996,28.549368000000001,"Stewart, Lake","154752",{CAE80ADB-472F-42E6-AA6C-4E612D04F854},2020/05/28,"2","00291693",Stewart Lake,0.22976947000,0.00000000000,"03080102030151","390","39000","500000",0.02421699159,0.00002118580
"1212",-81.338811000000007,28.932815000000002,Blue Springs State Park Marsh,"95826","107805565",2015/02/13,"2",,,4.49000265000,0.00000000000,,"466","46600","500000",0.27639490182,0.00041543658
"237",-81.503180000000000,27.572486000000001,"Lelia, Lake","162013","112047407",2009/09/10,"2","00285451",Lake Lelia,0.65600000000,34.10000000000,"03090101037174","390","39009","1000000",0.03287617908,0.00005994709
"329",-81.547809999999998,27.632629999999999,"Olivia, Lake","42335","112046551",2009/09/10,"2","00288149",Lake Olivia,0.34900000000,35.70000000000,"03090101036778","390","39009","1000000",0.02119221905,0.00003187035
"324",-84.982110000000006,30.685379999999999,Ocheesee Pond,"214077","130052808",2014/09/16,"2",,,10.23045083000,0.00000000000,,"466","46600","2000000",0.41381544482,0.00096306011
"100",-81.860240000000005,28.557970000000001,"David, Lake","515094","68058411",2009/09/10,"2","00281315",Lake David,0.17800000000,99.00000000000,"03100208003137","390","39009","500000",0.01829033623,0.00001642116
"477",-86.151520000000005,30.326910000000002,Western Lake,"86457","122170304",2016/08/05,"2","00293134",Western Lake,0.92015270000,0.00000000000,"03140101001085","390","39004","1000000",0.13523771757,0.00008631139
"1383",-80.251035999999999,27.095399000000000,Halpatiokee Regional Park Lakes,"450751","138364891",2018/08/23,"2",,,0.16490613000,0.00000000000,"03090206040250","436","43600","500000",0.04379409386,0.00001500724
"1365",-81.941353000000007,26.705144000000001,Yellow Fever Creek,,,,,,,,,,,,,,
"1367",-80.690544000000003,27.798620000000000,Fellsmere Reservoir Area SGA,"398969",{D489E36B-B8EE-4575-9B33-D6E865B6B46E},2016/02/24,"2",,,18.62723265000,0.00000000000,,"466","46600","1000000",0.24139059780,0.00170571052
"95",-81.909722000000002,28.026389000000002,"Crystal, Lake","240108","78643427",2012/08/24,"2","00281121",Crystal Lake,0.10953831000,134.00000000000,"03100101004358","390","39009","500000",0.01317024320,0.00001005141
"446",-83.119799999999998,30.039050000000000,Townsend Lake,"510422","99336327",2015/09/01,"2","00292389",Townsend Pond,0.58358347000,71.00000000000,"03110205000733","390","39009","1000000",0.05173944699,0.00005458230
"446",-83.119799999999998,30.039050000000000,Townsend Lake,"147624","99336329",2015/09/01,"2",,,0.32068321000,0.00000000000,,"466","46600","250000",0.10991322653,0.00002999268
"301",-82.005229999999997,28.900990000000000,"Miona, Lake","521307","68037897",2013/03/20,"2","00286971",Lake Miona,1.30993500000,56.00000000000,"03100208002304","390","39009","2000000",0.05859222943,0.00012118250
"50",-81.849673999999993,29.143321000000000,"Bryant, Lake","146854","167753323",2020/05/28,"2","00305389",Lake Bryant,3.13217472000,0.00000000000,"03080102028618","390","39000","2000000",0.09200075506,0.00029042211
"674",-80.736136000000002,26.382183000000001,Holey Land WMA,"161399","135211960",2016/12/27,"2","00307628",The Everglades,139.84402819000,0.00000000000,,"466","46600","5000000",0.52285902321,0.01264811226
"307",-82.608616999999995,28.285467000000001,Moon Lake,"507880","58678095",2019/02/01,"2","00287088",Moon Lake,0.43571212000,41.00000000000,"03100207002869","390","39009","1000000",0.04043396959,0.00004007641
"879",-82.291421000000000,27.266335000000002,Myakka River SP Wetlands,"295686",{73C3EE2E-6D6B-4E7C-85E7-5EC36995AD30},2019/07/16,"2","00287499",Lake Myakka,3.34996074000,0.00000000000,"03100102012113","390","39009","2000000",0.11291858742,0.00030533636
"879",-82.291421000000000,27.266335000000002,Myakka River SP Wetlands,"29928","56730837",2019/07/16,"2",,,3.04449655000,0.00000000000,,"466","46600","500000",0.44643918590,0.00027750631
"109",-81.772840000000002,29.426130000000001,Delancey Lake,"293074","107775717",2013/11/12,"2","00305566",Lake Delancy,1.48422391000,22.00000000000,"03080101028876","390","39009","2000000",0.08258392996,0.00013799298
"269",-81.232912999999996,28.972607000000000,"Macy, Lake","111213","107778425",2015/02/13,"2","00286263",Lake Macy,0.07532330000,0.00000000000,"03080101009235","390","39004","5000000",0.01398141276,0.00000697278
"1382",-82.452235000000002,27.177049000000000,Oscar Scherer Stae Park Lake,"14497","61258573",2008/08/07,"2",,,0.05300000000,0.00000000000,"03100201006916","436","43617","250000",0.00888226933,0.00000478557
"1384",-82.097933999999995,26.439333999999999,Sanibel River Slough,"532308","78218045",2019/10/11,"2",,,3.58930687000,0.00000000000,,"466","46600","500000",0.25332052020,0.00032477953
"864",-81.690048000000004,26.566358000000001,Wild Turkey Strand Preserve,"437057","116979761",2018/01/22,"2",,,0.57240060000,0.00000000000,,"466","46600","250000",0.08753622744,0.00005185177
"136",-81.849900000000005,28.609500000000001,"Emma, Lake","201612","167799222",2009/11/16,"2",,,0.03000000000,0.00000000000,,"466","46600","50000",0.01228186998,0.00000273215
"136",-81.849900000000005,28.609500000000001,"Emma, Lake","317184","167799220",2009/11/16,"2",,,0.03400000000,0.00000000000,,"466","46600","50000",0.00896314589,0.00000317121
"136",-81.849900000000005,28.609500000000001,"Emma, Lake","151731","167799219",2020/05/28,"2","00282203",Lake Emma,0.69817573000,0.00000000000,"03080102027744","390","39000","5000000",0.02988568194,0.00006441326
"1487",-80.540184999999994,27.312940999999999,Teague Hammock Preserve,,,,,,,,,,,,,,
"1541",-81.906081000000000,29.235738000000001,"Charles, Lake","549567","112614648",2010/05/18,"2","00305473",Lake Charles,1.45700000000,0.00000000000,"03080102005759","390","39004","5000000",0.04327851120,0.00013516653
"1381",-81.824748000000000,28.882453999999999,Emeralda Marsh Conservation Area,"50485","112621444",2010/07/06,"2",,,1.44000000000,0.00000000000,"03080102011262","390","39004","5000000",0.07114831596,0.00013317494
"661",-81.655726000000001,28.888528999999998,Pine Meadows Restoration Area,"548390","112699684",2020/03/18,"2","00305646",Eustis Meadows,4.89710163000,0.00000000000,,"466","46600","500000",0.23324766882,0.00045298877
"108",-81.932360000000003,28.112310000000001,"Deeson, Lake","14914","68085027",2009/09/10,"2","00281469",Lake Deeson,0.18900000000,124.00000000000,"03100208003628","390","39009","500000",0.02249642809,0.00001739791
"173",-82.169539999999998,29.859424000000001,Hampton Lake,"545952","113647267",2019/04/16,"2","00283673",Hampton Lake,3.36400322000,0.00000000000,"03110206010854","390","39004","2000000",0.07346599909,0.00031408323
"1492",-81.061413999999999,27.594667000000001,Kissimmee Prairie Preserve,,,,,,,,,,,,,,
"975",-82.493774579999993,28.118372789999999,"Saddleback, Lake","499256","68792370",2019/06/18,"2",,,0.10180675000,0.00000000000,,"466","46600","100000",0.05022596669,0.00000935000
"975",-82.493774579999993,28.118372789999999,"Saddleback, Lake","78143","68788702",2019/06/18,"2","00290118",Saddleback Lake,0.13617017000,0.00000000000,"03100206000958","390","39004","500000",0.02256941709,0.00001250595
"1538",-81.560396999999995,30.467621999999999,William Sheffield,"305162","125933039",2019/07/24,"2",,,0.07279536000,0.00000000000,"03080103027900","436","43600","250000",0.01103323425,0.00000683780
"618",-81.825671999999997,30.304444000000000,Crystal Springs FMA,"367927",{A4BF1642-F171-4D34-AA68-6C64CCDEED44},2014/04/24,"2",,,0.00942782000,0.00000000000,"03080103040970","436","43600","100000",0.00525242102,0.00000088413
"175",-81.404865000000001,30.366364000000001,Hanna Park FMA,"305125","125941119",2019/07/24,"2",,,0.11533853000,0.00000000000,"03080103003615","436","43600","500000",0.01880430541,0.00001082297
"1072",-81.561079860000007,27.863911829999999,"Easy, Lake","427072","112043191",2013/10/19,"2","00282050",Lake Easy,1.35971087000,34.10000000000,"03090101035142","390","39009","5000000",0.04367362051,0.00012457901
"1566",-80.342161000000004,27.348528000000002,St. Lucie River,"446059","138376901",2018/03/06,"2",,,0.33127580000,0.00000000000,,"466","46600","250000",0.06629575633,0.00003021297
"1566",-80.342161000000004,27.348528000000002,St. Lucie River,"449289","138376810",2018/03/06,"2",,,0.43960490000,0.00000000000,,"466","46600","5000000",0.05460373201,0.00004009470
"1566",-80.342161000000004,27.348528000000002,St. Lucie River,"82830","138376779",2005/08/08,"2",,,0.00900000000,0.00000000000,,"466","46600","24000",0.00381990838,0.00000079541
"461",-81.574550000000002,27.901620000000001,"Wales, Lake","423448","112042861",2009/09/10,"2","00292828",Lake Wales,1.21300000000,34.10000000000,"03090101034986","390","39009","1000000",0.04877035848,0.00011120101
"121",-81.765799999999999,27.986300000000000,Eagle Lake,"144011","78690649",2013/02/20,"2","00281921",Eagle Lake,2.58531025000,131.00000000000,"03100101004362","390","39009","5000000",0.08644048612,0.00023714691
"1641",-81.476944000000003,28.103446000000002,Poinciana Ponds & Canals,"427437","112040593",2003/11/20,"2",,,0.07600000000,0.00000000000,"03090101033884","390","39004","250000",0.01019505994,0.00000698103
"1641",-81.476944000000003,28.103446000000002,Poinciana Ponds & Canals,"251309","112059235",2013/08/19,"2",,,16.94438034000,0.00000000000,,"466","46600","5000000",0.36890818663,0.00155601981
"1617",-84.059100000000001,30.157100000000000,Flint Rock Wildlife Mgmt Area Ephemeral Ponds,,,,,,,,,,,,,,
"1614",-80.530553999999995,26.933634000000001,Dupuis Management Area,"518618","138384270",2005/08/08,"2",,,0.03300000000,0.00000000000,,"466","46600","50000",0.00703370901,0.00000303341
"1606",-80.610890999999995,27.679054000000001,Ansin East Impoundment,"287769","83040277",2009/11/04,"2",,,18.36500000000,0.00000000000,,"466","46600","1000000",0.20030724070,0.00167993813
"1633",-87.255995999999996,30.405159999999999,Bayou Chico,,,,,,,,,,,,,,
"1657",-81.734634000000000,28.358136999999999,Hilochee WMA,"152423","112648700",2020/05/28,"2","02747036",Lake Grason,0.13405422000,0.00000000000,"03080102005708","390","39000","500000",0.01417634651,0.00001233830
"1613",-80.290899999999993,26.851849999999999,FWC Palm Beach County Shooting Sports Park,"224705","138367711",2014/04/17,"2",,,0.00706048000,0.00000000000,"03090206042921","436","43600","100000",0.00326869371,0.00000064117
"1612",-82.391225000000006,30.217578000000000,Osceola National Forest Ephemeral Ponds,,,,,,,,,,,,,,
"397",-81.887450000000001,26.975466999999998,Shell Creek,"341205",{2587F4DA-331B-40B9-A0CE-E876566F0D78},2013/07/29,"2",,,0.00935615000,0.00000000000,,"466","46600","24000",0.00375473519,0.00000085054
"359",-81.923383000000001,26.985382999999999,Prairie Creek,"340769",{E6E031B2-D8C0-4975-A47C-983B3BD39B7A},2013/07/29,"2",,,0.00108670000,0.00000000000,,"466","46600","0",0.00160986054,0.00000009880
"359",-81.923383000000001,26.985382999999999,Prairie Creek,"340770",{A1DAEF98-62A6-4C25-BE5A-7E270BB249CD},2013/07/29,"2",,,0.00147730000,0.00000000000,,"466","46600","0",0.00139564936,0.00000013431
"359",-81.923383000000001,26.985382999999999,Prairie Creek,"75074","86973862",2013/07/29,"2",,,0.58267614000,0.00000000000,,"466","46600","250000",0.05922884410,0.00005297469
"31",-82.484966999999997,27.436733000000000,Bill Evers Reservoir,"453572","44993407",2020/04/23,"2","00292875",Ward Lake,0.91274608000,0.00000000000,"03100202004437","436","43600","5000000",0.09722614518,0.00008330946
"1673",-87.215466000000006,30.511716000000000,Ferry Pass Pond,"528525","32409265",2002/01/28,"2",,,0.02400000000,0.00000000000,,"466","46600","50000",0.00732257272,0.00000222393
"41",-81.712253000000004,30.597828000000000,Boggy Creek,"467443","108152667",2015/01/02,"2",,,1.96656371000,0.00000000000,,"466","46600","500000",0.17856596243,0.00018497914
"41",-81.712253000000004,30.597828000000000,Boggy Creek,"168836","108145347",2015/01/02,"2",,,13.21809718000,0.00000000000,,"466","46600","1000000",0.93764023902,0.00124308715
"296",-81.700783000000001,30.582283000000000,Mills Creek,"168836","108145347",2015/01/02,"2",,,13.21809718000,0.00000000000,,"466","46600","1000000",0.93764023902,0.00124308715
"7",-81.744100000000003,28.100100000000001,"Alfred, Lake","177413","78690599",2012/08/24,"2","00277744",Lake Alfred,2.73754798000,0.00000000000,"03100101004267","390","39004","5000000",0.07897390604,0.00025136948
"622",-81.503404000000003,27.586911000000001,Tulane Lake,"429983","112047125",2009/09/10,"2","00292502",Lake Tulane,0.35600000000,35.70000000000,"03090101037058","390","39009","1000000",0.02091861370,0.00003253739
"465",-82.606499999999997,29.555499999999999,Watermelon Pond,"471334","114437067",2014/03/05,"2","00292934",Watermelon Pond,4.75281836000,59.00000000000,"03110101001195","390","39006","2000000",0.36699023816,0.00044241608
"1662",-84.939121999999998,30.747710000000001,Apalachee Wildlife Management Area,,,,,,,,,,,,,,
"988",-81.413537000000005,27.274964000000001,"August, Lake","423831","112050573",2003/11/20,"2",,,0.21100000000,0.00000000000,"03090101038590","390","39004","500000",0.01661579016,0.00001924491
"1667",-80.799003999999996,27.215053000000001,Lower Taylor Creek,,,,,,,,,,,,,,
"169",-81.821290000000005,29.158999999999999,Half Moon Lake,"273700","112671848",2009/11/04,"2",,,4.75200000000,0.00000000000,,"466","46600","5000000",0.39730949061,0.00044064475
"169",-81.821290000000005,29.158999999999999,Half Moon Lake,"4309","120024104",2009/11/04,"2","00305781",Halfmoon Lake,1.35300000000,0.00000000000,"03080102028592","390","39004","5000000",0.06560218712,0.00012547845
"294",-81.839859000000004,29.179932000000001,Mill Dam Lake,"549464","112622644",2010/05/18,"2","00306047",Mill Dam Lake,1.34800000000,0.00000000000,"03080102004474","390","39004","2000000",0.08482815059,0.00012502478
"1682",-87.061108000000004,30.470447000000000,Garcon Point WMA,,,,,,,,,,,,,,
"1666",-84.522999999999996,30.488859999999999,Joe Budd Pond,"31045","129952470",2014/09/30,"2","00306650",J T Budd Pond,0.06166814000,0.00000000000,"03120003001558","436","43600","250000",0.01560736020,0.00000579381
"156",-82.013229999999993,29.769890000000000,Geneva Lake,,,,,,,,,,,,,,
"1669",-81.475847999999999,27.560514999999999,Little Lake Bonnet,"429144","112047581",2003/11/20,"2","00285620",Little Bonnet Lake,0.33000000000,0.00000000000,"03090101037282","390","39004","1000000",0.02240174237,0.00003015660
"148",-83.409070000000000,30.466400000000000,"Francis, Lake","546253","133703477",2020/04/24,"2","00282782",Francis Lake,0.09751455000,0.00000000000,"03110203002416","390","39000","500000",0.01202111379,0.00000915961
"12",-82.790149999999997,28.174299999999999,Anclote River,,,,,,,,,,,,,,
"248",-82.450666999999996,27.702933000000002,Little Manatee River,,,,,,,,,,,,,,
